,area_sqft,availability_date,balcony,base_price,bathroom,bedrooms,id,kitchens,latitude,living,locality_name,longitude,owner_name,post_date,price,property_name,zomato loc,zomato popularity,zomato price,zomato rating
0,1128,1-Mar-21,,4920,2,2,1029084,1,12.965998,1,Whitefield,77.757559,Sree Developers,17-Nov-20,5549760,Sree Samruddhi,,,,
1,1264,0,2,6252,1,2,145599,1,13.04384,,Old Madras Road,77.747955,Salarpuria Properties Pvt Ltd,17-Nov-20,7868015,Salarpuria Sattva East Crest,,,,
2,1271,1-Apr-21,,5489,3,3,11582,0,13.096476,,Hennur Road,77.647831,Kolte-Patil Developers Ltd,27-Oct-20,6977475,Kolte Patil Raaga,,,,
3,938,1-Apr-21,,5603,2,2,11582,0,13.096476,,Hennur Road,77.647831,Kolte-Patil Developers Ltd,27-Oct-20,5255865,Kolte Patil Raaga,,,,
4,1904,0,2,6271,3,3,45096,1,13.083073,1,Hennur Road,77.654397,Salarpuria Properties Pvt Ltd,17-Nov-20,11940904,Salarpuria Sattva Aspire,,,,
5,1607,0,2,4221,3,3,413931,1,12.90565,1,Kengeri,77.47755,Uniworth Finvest Pvt Ltd,17-Nov-20,6783147,Uniworth Serenity,Kengeri,4.71,1.666666667,3.922222222
6,1343.43,1-Dec-20,1,8117,2,2,803121,1,12.934122,1,Kadubeesanahalli,77.698826,Amsha Ventures,12-Nov-20,10901131,Bhuvi by Amsha,,,,
7,1734.86,1-Dec-20,1,8117,3,3,803121,1,12.934122,1,Kadubeesanahalli,77.698826,Amsha Ventures,13-Oct-20,14082995,Bhuvi by Amsha,,,,
8,1578,1-Dec-20,,5171,,3,478156,0,12.8672,,Hosa Road,77.690363,T G Developers,2-Nov-20,8116395,TG Ascent,,,,
9,1240,1-Dec-20,,5273,,2,478156,0,12.8672,,Hosa Road,77.690363,T G Developers,2-Nov-20,6501600,TG Ascent,,,,
10,2387,0,,14209,,3,40548,0,12.995517,,Frazer Town,77.610564,Prestige Group,17-Nov-20,33918000,Prestige Spencer Heights,,,,
11,944,1-Dec-21,1,5854,2,2,793710,1,13.083176,1,Thanisandra,77.619418,Provident Housing Ltd,2-Nov-20,5527120,Provident Toogoodhomes,,,,
12,1691,1-Jul-23,2,5677,3,3,379993,1,12.84959,1,Electronic City,77.67008,Kolte-Patil Developers Ltd,29-Oct-20,8005194,Kolte Patil I Towers Exente,,,,
13,1233,1-Jul-23,1,5839,2,2,379993,1,12.84959,1,Electronic City,77.67008,Kolte-Patil Developers Ltd,29-Oct-20,7200000,Kolte Patil I Towers Exente,,,,
14,2848,1-Sep-23,,11409,,3,1047891,0,12.980894,,CV Raman Nagar,77.662696,Prestige Group,17-Nov-20,32328000,Prestige Rapperswil,CV Raman Nagar,4.28,1.888888889,3.822222222
15,4465,0,5,14787,5,4,6556,1,13.01762,1,Malleshwaram,77.558076,Salarpuria Properties Pvt Ltd,17-Nov-20,67023525,Salarpuria Sattva Luxuria,Yeshwantpur,4.37,2.222222222,4.133333333
16,4075,0,,10242,4,4,46280,0,12.996184,,Old Madras Road,77.669383,Salarpuria Properties Pvt Ltd,2-Nov-20,40495500,Salarpuria Sattva Magnificia,,,,
17,2475,0,3,14682,4,3,6556,1,13.01762,1,Malleshwaram,77.558076,Salarpuria Properties Pvt Ltd,17-Nov-20,36562875,Salarpuria Sattva Luxuria,Yeshwantpur,4.37,2.222222222,4.133333333
18,1246,1-Jun-21,1,6800,2,2,498603,1,13.043871,1,Tumkur Road,77.508548,Salarpuria Properties Pvt Ltd,17-Nov-20,8472693,Salarpuria Sattva Opus,Jalahalli,4.2,1.444444444,3.922222222
19,2425,0,,9488,3,3,46280,0,12.996184,,Old Madras Road,77.669383,Salarpuria Properties Pvt Ltd,17-Nov-20,22969500,Salarpuria Sattva Magnificia,,,,
20,1073,1-Feb-21,1,6523,2,2,451139,1,12.873694,1,JP Nagar,77.564066,VAISHNAVI INFRASTRUCTURE PVT LTD,13-Nov-20,6932653,Vaishnavi Oasis,Kanakapura Road,4.42,1.666666667,3.811111111
21,1586,1-Jun-21,1,6722,3,3,498603,1,13.043871,1,Tumkur Road,77.508548,Salarpuria Properties Pvt Ltd,21-Sep-20,10623751,Salarpuria Sattva Opus,Jalahalli,4.2,1.444444444,3.922222222
22,1531,1-Feb-21,,6663,3,3,451139,1,12.873694,1,JP Nagar,77.564066,VAISHNAVI INFRASTRUCTURE PVT LTD,13-Nov-20,10002023,Vaishnavi Oasis,Kanakapura Road,4.42,1.666666667,3.811111111
23,1775,0,,8420,,3,406724,0,13.053021,,Hebbal,77.597271,VAISHNAVI INFRASTRUCTURE PVT LTD,13-Nov-20,14879825,Vaishnavi North 24,Hebbal,4.72,2.333333333,4.033333333
24,1165,1-Sep-21,2,3777,2,2,1016772,1,12.932805,1,Varthur,77.748813,HOMESQ.ARE,12-Nov-20,4400205,Sohan Fortune,,,,
25,711.46,0,1,9137,2,2,114795,1,13.060728,1,Tumkur Road,77.507676,Salarpuria Properties Pvt Ltd,17-Nov-20,6501072,Salarpuria Sattva Laurel Heights,,,,
26,1022.75,0,1,7325,3,3,114795,1,13.060728,1,Tumkur Road,77.507676,Salarpuria Properties Pvt Ltd,21-Sep-20,7955840,Salarpuria Sattva Laurel Heights,,,,
27,1626,1-Sep-25,1,5278,3,3,1042031,1,13.0861557,1,Yelahanka New Town,77.5528449,Arvind Smartspaces Limited,22-Oct-20,8170650,Arvind Bel Air,,,,
28,3340,0,,9620,,4,39730,1,12.911179,,JP Nagar,77.57268,SNN Builders,4-Sep-20,32127840,SNN Raj Spiritua,,,,
29,2460,0,,9724,3,3,39730,0,12.911179,,JP Nagar,77.57268,SNN Builders,27-Oct-20,23914800,SNN Raj Spiritua,,,,
30,658,1-Mar-22,1,5957,1,1,468979,1,13.241892,1,Devanahalli,77.721003,Salarpuria Properties Pvt Ltd,17-Nov-20,3920172,Salarpuria Sattva Park Cubix,,,,
31,1647,1-Mar-23,,4700,3,3,768923,0,13.046642,,Tumkur Road,77.502508,Arvind Smartspaces Limited,23-Oct-20,7740000,Arvind Oasis,Jalahalli,4.2,1.444444444,3.922222222
32,2674,1-Mar-21,1,4435,3,3,161808,1,13.081197,1,Thanisandra,77.635217,DS-MAX Properties Pvt Ltd,21-Oct-20,12300000,DS MAX Skycity,,,,
33,1264,0,2,6252,1,2,145599,1,13.04384,,Old Madras Road,77.747955,Salarpuria Properties Pvt Ltd,17-Nov-20,7868015,Salarpuria Sattva East Crest,,,,
34,640,1-Dec-22,1,7067,1,1,798517,1,13.12432,1,Yelahanka,77.566718,VAISHNAVI INFRASTRUCTURE PVT LTD,13-Nov-20,4453760,Vaishnavi Serene,,,,
35,1933,0,,7709,3,3,311057,0,12.940322,,Mysore Road,77.525206,Salarpuria Properties Pvt Ltd,21-Sep-20,14834921,Salarpuria Sattva Divinity,Rajarajeshwari Nagar,4.76,2,4.044444444
36,1784,1-Nov-23,,7133,,3,902337,0,13.121644,,Yelahanka,77.619543,Salarpuria Properties Pvt Ltd,21-Sep-20,12680168,Salarpuria Sattva Exotic,,,,
37,1180,0,,7882,2,2,311057,0,12.940322,,Mysore Road,77.525206,Salarpuria Properties Pvt Ltd,17-Nov-20,9301395,Salarpuria Sattva Divinity,Rajarajeshwari Nagar,4.76,2,4.044444444
38,1484,0,1,5599,3,3,456605,1,13.089239,1,Jakkur,77.601399,Arvind Smartspaces Limited,24-Oct-20,8310000,Arvind Skylands,,,,
39,1533,0,2,6198,3,3,145599,1,13.04384,1,Old Madras Road,77.747955,Salarpuria Properties Pvt Ltd,2-Nov-20,9477006,Salarpuria Sattva East Crest,,,,
40,1261,1-Nov-23,,7250,,2,902337,0,13.121644,,Yelahanka,77.619543,Salarpuria Properties Pvt Ltd,21-Sep-20,9135797,Salarpuria Sattva Exotic,,,,
41,1009,1-Mar-22,2,6132,2,2,468979,1,13.241892,1,Devanahalli,77.721003,Salarpuria Properties Pvt Ltd,21-Sep-20,6184707,Salarpuria Sattva Park Cubix,,,,
42,1850,0,2,7369,3,3,113209,1,12.889567,1,Kudlu Gate,77.640774,Salarpuria Properties Pvt Ltd,17-Nov-20,12538150,Salarpuria Sattva Cadenza,Electronic City,4.31,1.777777778,4.011111111
43,1498,1-Mar-22,3,5989,3,3,468979,1,13.241892,1,Devanahalli,77.721003,Salarpuria Properties Pvt Ltd,21-Sep-20,8921447,Salarpuria Sattva Park Cubix,,,,
44,1704,1-Jun-21,2,6934,3,3,413857,1,12.982748,1,Vijayanagar,77.518751,Salarpuria Properties Pvt Ltd,17-Nov-20,11763895,Salarpuria Sattva Anugraha,Nagarbhavi,4.53,2,4.1
45,1818,1-Mar-21,,5000,3,3,895910,0,12.966899,,Kundalahalli,77.739717,SBB Saphire,23-Oct-20,9090000,SBB Sapphire,Whitefield,4.96,2.888888889,4.2
46,1773,0,1,5439,3,3,463417,1,13.060721,1,Jalahalli,77.520057,Kumar Properties,17-Nov-20,9652500,Kumar Princetown Royale,Jalahalli,4.2,1.444444444,3.922222222
47,1118,1-Dec-22,2,7142,2,3,798517,1,13.12432,1,Yelahanka,77.566718,VAISHNAVI INFRASTRUCTURE PVT LTD,13-Nov-20,6190000,Vaishnavi Serene,,,,
48,954,1-Jan-23,,6606,3,3,1035326,0,12.8287,,Electronics City Phase 1,77.66146,Ramky Estate & Farms Ltd,21-Oct-20,6302124,Ramky One Karnival,,,,
49,900,1-Dec-22,1,6795,2,2,798517,1,13.12432,1,Yelahanka,77.566718,VAISHNAVI INFRASTRUCTURE PVT LTD,13-Nov-20,5079600,Vaishnavi Serene,,,,
50,1186,1-Jun-21,,7100,2,2,413857,0,12.982748,,Vijayanagar,77.518751,Salarpuria Properties Pvt Ltd,17-Nov-20,8357195,Salarpuria Sattva Anugraha,Nagarbhavi,4.53,2,4.1
51,797,1-Jan-23,,6606,,2,1035326,0,12.8287,,Electronics City Phase 1,77.66146,Ramky Estate & Farms Ltd,21-Oct-20,5264982,Ramky One Karnival,,,,
52,1333,1-Mar-21,,4979,2,2,895910,0,12.966899,,Kundalahalli,77.739717,SBB Saphire,17-Nov-20,6637007,SBB Sapphire,Whitefield,4.96,2.888888889,4.2
53,492,1-Jun-21,1,6984,1,1,413857,1,12.982748,1,Vijayanagar,77.518751,Salarpuria Properties Pvt Ltd,22-Sep-20,3436307,Salarpuria Sattva Anugraha,Nagarbhavi,4.53,2,4.1
54,1760,0,2,5979,3,3,551345,1,12.972841,1,Whitefield,77.734357,Pavani Sarovar,2-Nov-20,10523040,Pavani Sarovar Phase 2,Whitefield,4.96,2.888888889,4.2
55,1997,1-Dec-21,1,9900,4,3,207215,1,13.016875,1,Kammanahalli,77.637275,Prestige Group,28-Oct-20,19650480,Prestige North Point,,,,
56,1726,1-Dec-21,1,9815,2,2,207215,1,13.016875,1,Kammanahalli,77.637275,Prestige Group,17-Nov-20,16730700,Prestige North Point,,,,
57,1130,1-May-22,1,6950,2,2,758488,1,12.846839,1,Bannerghatta Road,77.587996,Prestige Group,2-Nov-20,7674576,Prestige Park Square,,,,
58,1771,1-May-22,1,6805,4,3,758488,1,12.846839,1,Bannerghatta Road,77.587996,Prestige Group,4-Oct-20,11773899,Prestige Park Square,,,,
59,1425,0,1,6025,2,2,551345,1,12.972841,1,Whitefield,77.734357,Pavani Sarovar,2-Nov-20,8585625,Pavani Sarovar Phase 2,Whitefield,4.96,2.888888889,4.2
60,2635,1-Oct-20,,10201,4,3,473006,1,13.041227,1,Hebbal,77.6094,SNN Builders,2-Nov-20,26857125,SNN Clermont,,,,
61,5260,1-Oct-20,1,10152,6,4,473006,1,13.041227,1,Hebbal,77.6094,SNN Builders,17-Oct-20,55146500,SNN Clermont,,,,
62,1585,1-Jun-21,,3800,,3,898795,0,12.856696,,Bannerghatta Road,77.596457,5 Elements Realty,4-Nov-20,6023000,Sai Nandana Grandeur,,,,
63,1232,1-Nov-20,,6464,2,2,791721,0,13.069885,,Sahakara Nagar,77.580357,Arunodaya Developers,17-Nov-20,7963648,Arunodaya Blue Bells,,,,
64,4865,1-Oct-20,,10501,5,5,473006,0,13.041227,,Hebbal,77.6094,SNN Builders,17-Oct-20,51087875,SNN Clermont,,,,
65,1408,0,1,6947,3,3,138589,1,12.870645,1,8th Phase JP Nagar,77.586045,Valmark ,1-Sep-20,9781376,Valmark Orchard Square,,,,
66,1431,1-Dec-20,1,3341,2,3,503353,1,13.0763829,1,Chikkabanavar ,77.5054245,DS-MAX Properties Pvt Ltd,13-Nov-20,4862000,DS Max Sonata,Jalahalli,4.2,1.444444444,3.922222222
67,1057,0,,5345,2,2,456605,0,13.089239,,Jakkur,77.601399,Arvind Smartspaces Limited,24-Oct-20,5650000,Arvind Skylands,,,,
68,1310,1-Jun-21,,3800,,2,898795,0,12.856696,,Bannerghatta Road,77.596457,5 Elements Realty,12-Nov-20,4978000,Sai Nandana Grandeur,,,,
69,1846,0,2,8434,4,3,127153,1,13.061846,1,Hennur Road,77.661598,Puravankara Projects Ltd,23-Oct-20,14983982,Palm Beach,Hennur,4.72,1.555555556,3.8
70,1346,0,,8116,2,2,127153,0,13.061846,,Hennur Road,77.661598,Puravankara Projects Ltd,23-Oct-20,10925482,Palm Beach,Hennur,4.72,1.555555556,3.8
71,1432,1-Feb-23,1,6531,3,3,760648,1,12.863535,1,Kanakpura Road,77.543773,Salarpuria Properties Pvt Ltd,28-Sep-20,9322084,Salarpuria Sattva Misty Charm,,,,
72,1475,1-Jan-23,1,6533,3,3,760648,1,12.863535,1,Kanakpura Road,77.543773,Salarpuria Properties Pvt Ltd,28-Sep-20,9585982,Salarpuria Sattva Misty Charm,,,,
73,2870,0,2,9324,4,4,12834,1,12.902437,1,Hosur Road,77.631319,Salarpuria Properties Pvt Ltd,2-Nov-20,26753750,Salarpuria Sattva Greenage,,,,
74,1042,0,1,6923,2,2,138589,1,12.870645,1,8th Phase JP Nagar,77.586045,Valmark ,1-Sep-20,7214570,Valmark Orchard Square,,,,
75,1035,1-Feb-23,,6655,2,2,760648,0,12.863535,,Kanakpura Road,77.543773,Salarpuria Properties Pvt Ltd,2-Nov-20,6867940,Salarpuria Sattva Misty Charm,,,,
76,1345,0,2,9861,2,2,12834,1,12.902437,1,Hosur Road,77.631319,Salarpuria Properties Pvt Ltd,17-Nov-20,13264375,Salarpuria Sattva Greenage,,,,
77,974,1-Jan-23,1,6674,2,2,760648,1,12.863535,1,Kanakpura Road,77.543773,Salarpuria Properties Pvt Ltd,28-Sep-20,6408000,Salarpuria Sattva Misty Charm,,,,
78,1890,0,2,9454,3,3,12834,1,12.902437,1,Hosur Road,77.631319,Salarpuria Properties Pvt Ltd,2-Nov-20,17860250,Salarpuria Sattva Greenage,,,,
79,1590,0,2,9457,2,3,12834,1,12.902437,1,Hosur Road,77.631319,Salarpuria Properties Pvt Ltd,17-Nov-20,15037750,Salarpuria Sattva Greenage,,,,
80,1169,1-Dec-20,,3289,2,2,503353,1,13.0763829,1,Chikkabanavar ,77.5054245,DS-MAX Properties Pvt Ltd,13-Nov-20,3967000,DS Max Sonata,Jalahalli,4.2,1.444444444,3.922222222
81,1480,1-Jun-22,2,5499,2,3,1036715,1,13.018888,1,Whitefield,77.761701,United Projects,14-Oct-20,8138520,United Dreams,,,,
82,600,1-Dec-24,,10326,,2,1044673,0,12.904857,,Kanakpura Road,77.546545,Provident Housing Ltd,15-Oct-20,6195600,Provident Park One,Uttarahalli,4.78,2,4
83,365,1-Dec-24,,10326,,1,1044673,0,12.904857,,Kanakpura Road,77.546545,Provident Housing Ltd,15-Oct-20,3769000,Provident Park One,Uttarahalli,4.78,2,4
84,1367,1-Apr-21,1,6294,2,2,414275,1,12.897326,1,Uttarahalli,77.540408,Prestige Group,4-Oct-20,8191064,Prestige Lake Ridge,Uttarahalli,4.29,1.333333333,3.777777778
85,1290,1-Jun-22,2,5499,2,2,1036715,1,13.018888,1,Whitefield,77.761701,United Projects,14-Oct-20,7093710,United Dreams,,,,
86,888,1-Dec-20,,3435,2,2,1032406,1,12.870441,1,Sompura,77.772975,ARS PROPERTIES,9-Nov-20,3051000,ARS Green Villae Rosaceae,Sarjapur Road,5,2.888888889,4.166666667
87,2388,1-Oct-21,,6532,,4,492453,0,13.096497,,Yelahanka New Town,77.573399,Raja Housing Limited,20-Oct-20,15600000,Raja Melrose,Yelahanka,1.5,1,3.2
88,1219,1-Dec-20,2,3436,2,3,1032406,1,12.870441,1,Sompura,77.772975,ARS PROPERTIES,9-Nov-20,4188484,ARS Green Villae Rosaceae,Sarjapur Road,5,2.888888889,4.166666667
89,1770,1-Jun-21,,5250,3,3,764482,1,12.878719,1,Bommanahalli,77.637658,S.B. Urbanscapes,28-Oct-20,9292500,S B Temple Tree,,,,
90,1595,1-Aug-23,,4999,3,3,212931,0,12.964414,,Nagondanahalli,77.757499,United Developers,10-Nov-20,7973405,United Sai Silicon City,,,,
91,2277,1-Dec-24,,4899,4,4,1048241,1,13.077647,1,Chikkagubbi,77.657922,Casagrand Builder Private Limited,11-Nov-20,11155023,Casagrand Boulevard,,,,
92,1575,1-Jun-21,,5250,2,2,764482,1,12.878719,1,Bommanahalli,77.637658,S.B. Urbanscapes,28-Oct-20,8268750,S B Temple Tree,,,,
93,1250,1-Aug-23,,4999,2,2,212931,0,12.964414,,Nagondanahalli,77.757499,United Developers,10-Nov-20,6248750,United Sai Silicon City,,,,
94,1248,1-Oct-21,,6511,,2,492453,0,13.096497,,Yelahanka New Town,77.573399,Raja Housing Limited,20-Oct-20,8100000,Raja Melrose,Yelahanka,1.5,1,3.2
95,756.54,1-Nov-21,1,8563,2,2,1027604,1,12.847065,1,Doddathoguru,77.653635,V. VENTURE,27-Oct-20,6067688,V Venture Eva,Electronic City,4.31,1.777777778,4.011111111
96,2180,0,3,6060,3,4,12904,1,12.859553,1,Begur Road,77.615132,SNN Builders,5-Sep-20,13210800,SNN Raj Serenity,,,,
97,3650,0,,6883,,4,94222,0,12.853213,,Electronic City,77.678311,SNN Builders,5-Sep-20,24892587,SNN Raj Greenbay,Electronic City,4.31,1.777777778,4.011111111
98,1880,0,2,6110,3,3,12904,1,12.859553,1,Begur Road,77.615132,SNN Builders,17-Nov-20,11476400,SNN Raj Serenity,,,,
99,1940,0,2,6470,4,3,94222,1,12.853213,1,Electronic City,77.678311,SNN Builders,27-Oct-20,12447080,SNN Raj Greenbay,Electronic City,4.31,1.777777778,4.011111111
100,922,1-Feb-21,,7257,3,3,1005641,0,12.866326,,Suraksha Nagar,77.624063,Rainvas Infraa,11-Aug-20,6785793,Rain bow Oaks,,,,
101,1919,1-Sep-22,1,7865,4,3,37582,1,12.890277,1,Hosur Road,77.637163,Puravankara Projects Ltd,5-Nov-20,15092935,Westend,,,,
102,1336,1-Sep-22,1,8333,2,2,37582,1,12.890277,1,Hosur Road,77.637163,Puravankara Projects Ltd,5-Nov-20,11132888,Westend,,,,
103,1443,1-Mar-24,,8160,,2,877123,0,13.0646421,,Thanisandra Main Road,77.631539,Puravankara Projects Ltd,12-Nov-20,10885992,Atmosphere,,,,
104,2241,1-Mar-24,,7765,,3,877123,0,13.0646421,,Thanisandra Main Road,77.631539,Puravankara Projects Ltd,23-Oct-20,17403606,Atmosphere,,,,
105,1615,0,1,7215,3,3,40106,1,12.903096,1,Bommanahalli,77.624992,SNN Builders,5-Oct-20,11604460,SNN Raj Grandeur,,,,
106,1290,0,2,7276,2,2,40106,1,12.903096,1,Bommanahalli,77.624992,SNN Builders,2-Nov-20,9386040,SNN Raj Grandeur,,,,
107,1410,1-Dec-20,2,4999,2,3,1022632,1,12.85948,,Gottigere,77.587491,Sri Sumukha Builders,24-Oct-20,7048590,Sumukha Brindavan,Bannerghatta Road,4.94,2.888888889,4.222222222
108,1205,1-Dec-20,,4999,,2,1022632,0,12.85948,,Gottigere,77.587491,Sri Sumukha Builders,24-Oct-20,6023795,Sumukha Brindavan,Bannerghatta Road,4.94,2.888888889,4.222222222
109,1481,1-Mar-23,,4039,,3,874681,0,13.029666,,Kalkere,77.671921,DS-MAX Properties Pvt Ltd,20-Oct-20,6484000,DS Max Skygrand,,,,
110,905,1-Dec-24,,10326,,3,1044673,0,12.904857,,Kanakpura Road,77.546545,Provident Housing Ltd,15-Oct-20,9345030,Provident Park One,Uttarahalli,4.78,2,4
111,883,0,1,5571,2,2,385047,1,12.881794,1,Mysore Road,77.470639,Provident Housing Ltd,13-Oct-20,4920000,Provident Sunworth,,,,
112,2462,0,2,13553,6,4,206977,1,12.931523,1,Koramangala,77.634487,Prestige Group,4-Oct-20,33613900,Prestige PineWood,,,,
113,1122,1-Mar-23,,4319,,2,874681,0,13.029666,,Kalkere,77.671921,DS-MAX Properties Pvt Ltd,20-Oct-20,4824000,DS Max Skygrand,,,,
114,570,1-Dec-23,,7439,1,1,1002018,1,12.992701,1,Whitefield,77.806012,Provident Housing Ltd,14-Oct-20,4240800,Provident Capella,,,,
115,1116,0,,5916,2,2,806176,0,12.996017,,Magadi Road,77.484839,Provident Housing Ltd,17-Nov-20,6602256,Provident The Tree,,,,
116,1339,1-Nov-21,1,8451,2,2,10920,1,13.035956,,Hebbal,77.598194,Prestige Group,17-Nov-20,11315889,Prestige Misty Waters Vista Tower,RT Nagar,4.72,2.333333333,4.033333333
117,1693,1-Nov-21,,8391,3,3,10920,1,13.035956,1,Hebbal,77.598194,Prestige Group,17-Oct-20,14196788,Prestige Misty Waters Vista Tower,RT Nagar,4.72,2.333333333,4.033333333
118,1866,0,2,13694,4,3,206977,1,12.931523,1,Koramangala,77.634487,Prestige Group,4-Oct-20,25224500,Prestige PineWood,,,,
119,2476,1-Nov-21,2,8282,5,4,10920,1,13.035956,1,Hebbal,77.598194,Prestige Group,17-Oct-20,21074600,Prestige Misty Waters Vista Tower,RT Nagar,4.72,2.333333333,4.033333333
120,1110,1-Dec-23,,7440,3,3,1002018,1,12.992701,1,Whitefield,77.806012,Provident Housing Ltd,14-Oct-20,8258400,Provident Capella,,,,
121,1830,1-Jun-22,2,6840,4,3,812069,1,13.076579,1,Vidyaranyapura,77.559667,Prestige Group,27-Oct-20,11929785,Prestige Willow Tree,New BEL Road,3.02,2,3.733333333
122,1218,0,1,8227,2,2,45578,1,12.885679,1,Kanakpura Road,77.563774,Prestige Group,2-Nov-20,10020486,Prestige Falcon City,,,,
123,1082,0,1,5572,2,3,385047,1,12.881794,1,Mysore Road,77.470639,Provident Housing Ltd,13-Oct-20,6028904,Provident Sunworth,,,,
124,664,1-Jun-22,1,6642,1,1,812069,1,13.076579,1,Vidyaranyapura,77.559667,Prestige Group,17-Nov-20,4672920,Prestige Willow Tree,New BEL Road,3.02,2,3.733333333
125,1154,1-Jun-22,1,7136,2,2,812069,1,13.076579,1,Vidyaranyapura,77.559667,Prestige Group,17-Oct-20,8235465,Prestige Willow Tree,New BEL Road,3.02,2,3.733333333
126,880,1-Dec-23,,7440,2,2,1002018,1,12.992701,1,Whitefield,77.806012,Provident Housing Ltd,14-Oct-20,6547200,Provident Capella,,,,
127,1745,1-Apr-21,2,6424,4,3,414275,1,12.897326,1,Uttarahalli,77.540408,Prestige Group,4-Oct-20,11005407,Prestige Lake Ridge,Uttarahalli,4.29,1.333333333,3.777777778
128,661,1-Apr-21,1,6656,1,1,414275,1,12.897326,1,Uttarahalli,77.540408,Prestige Group,17-Nov-20,4400000,Prestige Lake Ridge,Uttarahalli,4.29,1.333333333,3.777777778
129,1385,0,1,13630,2,2,206977,1,12.931523,1,Koramangala,77.634487,Prestige Group,17-Nov-20,18851250,Prestige PineWood,,,,
130,1705,0,1,5534,3,3,11296,1,13.139697,1,Yelahanka,77.56967,Prestige Group,4-Nov-20,9436500,Prestige Royale Gardens,,,,
131,1545,0,,6318,,3,1045025,0,12.887076,,JP Nagar,77.584598,MBM Developers,19-Oct-20,9761310,MBM Mandevilla,JP Nagar,5,3,4.355555556
132,1144,1-Dec-23,,4032,,2,554931,0,12.927276,,Kengeri,77.486045,DS-MAX Properties Pvt Ltd,20-Oct-20,4690000,DS Max Skysupreme,Kengeri,4.71,1.666666667,3.922222222
133,1603,0,1,8559,3,3,45578,1,12.885679,1,Kanakpura Road,77.563774,Prestige Group,4-Oct-20,13720930,Prestige Falcon City,,,,
134,1322,0,,5916,3,3,806176,0,12.996017,,Magadi Road,77.484839,Provident Housing Ltd,13-Oct-20,7820952,Provident The Tree,,,,
135,2235,0,3,3643,3,3,42440,1,13.055059,1,Hennur Road,77.683034,OWNMYHOME,7-Nov-20,8144340,DS MAX Skyscape,,,,
136,1952,1-Dec-24,,4699,3,3,1048241,1,13.077647,1,Chikkagubbi,77.657922,Casagrand Builder Private Limited,11-Nov-20,9562848,Casagrand Boulevard,,,,
137,1368,1-Dec-24,,4599,2,2,1048241,1,13.077647,1,Chikkagubbi,77.657922,Casagrand Builder Private Limited,11-Nov-20,6291432,Casagrand Boulevard,,,,
138,1675,1-Dec-20,2,4966,3,3,774661,1,12.922104,1,Varthur,77.737768,Candeur Constructions,7-Nov-20,8318050,Candeur Landmark,,,,
139,1830,0,2,0,3,3,12904,1,12.859553,1,Begur Road,77.615132,SNN Builders,3-Sep-20,0,SNN Raj Serenity,,,,
140,2420,1-Mar-24,,7851,,4,877123,0,13.0646421,,Thanisandra Main Road,77.631539,Puravankara Projects Ltd,23-Oct-20,15900000,Atmosphere,,,,
141,1419,0,1,4350,2,2,81872,0,12.931989,1,Rajarajeshwari Nagar,77.510729,Griha Mithra Constructions,1-Oct-20,6172650,Griha Mithra Grand Gandharva,,,,
142,1362,0,1,5617,2,2,11296,1,13.139697,1,Yelahanka,77.56967,Prestige Group,17-Nov-20,7618600,Prestige Royale Gardens,,,,
143,773,1-Sep-22,,6693,3,3,905535,0,12.886985,,Mysore Road,77.468743,Provident Housing Ltd,13-Oct-20,5173689,Provident Equinox,,,,
144,623,1-Sep-22,,6693,2,2,905535,0,12.886985,,Mysore Road,77.468743,Provident Housing Ltd,13-Oct-20,4170000,Provident Equinox,,,,
145,773,1-Mar-22,,6693,3,3,905535,0,12.886985,,Mysore Road,77.468743,Provident Housing Ltd,13-Oct-20,5173689,Provident Equinox,,,,
146,623,1-Mar-22,,6693,2,2,905535,0,12.886985,,Mysore Road,77.468743,Provident Housing Ltd,13-Oct-20,4170000,Provident Equinox,,,,
147,1250,0,,6318,,2,1045025,0,12.887076,,JP Nagar,77.584598,MBM Developers,17-Nov-20,7897500,MBM Mandevilla,JP Nagar,5,3,4.355555556
148,1621,1-Dec-20,,4500,3,3,1016139,0,13.0343529,,Horamavu Agara,77.6465269,Evergreen Property,5-Oct-20,7294500,Mitraa My Gate,,,,
149,1086,1-Oct-23,,3803,,2,895944,0,13.007056,,Seegehalli,77.762781,DS-MAX Properties Pvt Ltd,20-Oct-20,4081000,DS Max Sangam Grand,Whitefield,4.96,2.888888889,4.2
150,1400,1-Jun-22,,4999,,2,1043535,0,13.015773,,KR Puram,77.695722,Garudachala Estates,20-Oct-20,6998600,Garuda Park Square,,,,
151,1425,1-Jun-22,,4999,,3,1043535,0,13.015773,,KR Puram,77.695722,Garudachala Estates,20-Oct-20,7123575,Garuda Park Square,,,,
152,1332,1-Dec-20,,4500,2,2,1016139,0,13.0343529,,Horamavu Agara,77.6465269,Evergreen Property,5-Oct-20,5994000,Mitraa My Gate,,,,
153,1180,1-Apr-22,2,4000,2,2,1006530,1,13.054296,1,Hennur Road,77.669445,Icon Constructions,16-Oct-20,4720000,iCON SN Luxuria,,,,
154,1445,1-Apr-22,2,4000,2,3,1006530,1,13.054296,1,Hennur Road,77.669445,Icon Constructions,16-Oct-20,5780000,iCON SN Luxuria,,,,
155,1680,1-Feb-21,,4500,3,3,409424,0,12.860725,,Sarjapur  Road,77.776747,Atco Projects Pvt. Ltd.,17-Nov-20,7560000,Atco Sapphire,,,,
156,1468,1-Feb-21,,4500,,2,409424,0,12.860725,,Sarjapur  Road,77.776747,Atco Projects Pvt. Ltd.,17-Nov-20,6606000,Atco Sapphire,,,,
157,1180,0,1,6618,2,2,375968,1,13.070845,1,Hennur Road,77.656923,Goyal & Co  Hariyana Group,17-Nov-20,7810000,Orchid Greens,,,,
158,1561,0,1,6676,3,3,375968,1,13.070845,1,Hennur Road,77.656923,Goyal & Co  Hariyana Group,17-Nov-20,9170875,Orchid Greens,,,,
159,1371,1-Jan-24,,6427,2,2,793276,1,13.086137,1,Thanisandra,77.634758,Goyal & Co  Hariyana Group,17-Nov-20,8500000,Orchid Piccadilly,Jakkur,1.5,1,3.2
160,2625,1-Jun-21,1,6250,5,4,455128,1,13.022621,1,KR Puram,77.714776,OHANA 857,9-Nov-20,16406250,OHANA,,,,
161,2215,1-Jun-21,2,6250,3,3,455128,1,13.022621,1,KR Puram,77.714776,OHANA 857,9-Nov-20,13843750,OHANA,,,,
162,759,1-Sep-23,1,4816,1,1,1021254,1,13.237074,,Devanahalli,77.724278,BRIGADE GROUP,4-Nov-20,3600000,Kino at Brigade Orchards,,,,
163,1154,1-Apr-25,1,10696,3,3,903171,1,13.021555,,KR Puram,77.705723,Assetz,12-Nov-20,11943900,Assetz Sun and Sanctum,KR Puram,4.43,1.222222222,3.866666667
164,1551,0,1,4350,2,3,81872,1,12.931989,1,Rajarajeshwari Nagar,77.510729,Griha Mithra Constructions,1-Oct-20,6746850,Griha Mithra Grand Gandharva,,,,
165,1735,1-Dec-21,1,5000,3,3,348819,0,13.018939,,KR Puram,77.706977,Arsis Developers Private Limited,5-Nov-20,8675000,Arsis Green Hills,KR Puram,4.43,1.222222222,3.866666667
166,3230,0,,5430,,4,240203,0,12.858951,,JP Nagar,77.566766,Anand Group,5-Nov-20,17542000,Anand Somu Pristine,Bannerghatta Road,4.94,2.888888889,4.222222222
167,1735,0,1,5400,2,3,240203,1,12.858951,1,JP Nagar,77.566766,Anand Group,5-Nov-20,9369000,Anand Somu Pristine,Bannerghatta Road,4.94,2.888888889,4.222222222
168,1405,1-Dec-21,1,5075,2,2,348819,0,13.018939,,KR Puram,77.706977,Arsis Developers Private Limited,5-Nov-20,7130375,Arsis Green Hills,KR Puram,4.43,1.222222222,3.866666667
169,1495,0,1,4373,2,3,461829,1,12.9161344,1,Mysore Road,77.4905124,Kumar Properties,17-Nov-20,6538000,Kumar Princeville,Mysore Road,4.71,1.666666667,3.922222222
170,1303,1-Dec-22,1,3282,2,3,405044,1,12.817912,1,Electronics City Phase 1,77.670877,DS-MAX Properties Pvt Ltd,21-Oct-20,4694000,DS MAX Skyclassic,Electronic City,4.31,1.777777778,4.011111111
171,1026,0,,4900,2,2,1023287,0,12.9647254,,Whitefield,77.7191899,K SITA LAKSHMI,7-Nov-20,5027400,Springfield Homes,,,,
172,1240,0,1,4600,2,2,224583,1,13.002891,1,Virgonagar,77.686773,Sai deep,18-Sep-20,5704000,Saideep Hulas,KR Puram,4.96,2.888888889,4.2
173,639,1-Aug-22,,4425,,2,1042913,0,12.909467,,Gunjur,77.790889,Signature Dwelling Pvt. Ltd.,10-Nov-20,2827575,Signature Crest,,,,
174,1035,1-Sep-23,1,4398,2,2,1021254,0,13.237074,,Devanahalli,77.724278,BRIGADE GROUP,4-Nov-20,4552965,Kino at Brigade Orchards,,,,
175,1022,1-Dec-21,,5731,,2,793503,0,13.100389,,Kogilu,77.632053,BRIGADE GROUP,4-Nov-20,5858104,Brigade Bricklane,,,,
176,973,1-Sep-22,1,5282,2,3,771760,1,12.875308,1,Mysore Road,77.448115,Sowparnika Projects & Infrastructure Pvt Ltd.,26-Sep-20,5139386,Sowparnika Pranathi,Mysore Road,0.98,1.142857143,2.442857143
177,744,1-Dec-22,,5602,,1,487989,0,12.993348,,Whitefield,77.806152,Sowparnika Projects & Infrastructure Pvt Ltd.,19-Sep-20,4168632,Sowparnika Columns,,,,
178,1068,1-Jun-24,2,4122,2,3,902278,1,13.145463,1,Bagalur,77.683658,Brigade Enterprises Ltd,31-Oct-20,4047720,Brigade El Dorado,,,,
179,1630,1-Sep-22,1,4599,3,3,1035336,1,12.940077,1,Marathahalli,77.741235,UNITED INFRASTRUCTURES,7-Nov-20,7496370,United Highlands,,,,
180,1277,1-Jun-23,,3298,,3,1008150,0,12.739619,,Hallehalli,77.750167,DS-MAX Properties Pvt Ltd,21-Oct-20,4214000,DS Max Sovereign,,,,
181,687,1-Dec-21,,5731,,1,793503,0,13.100389,,Kogilu,77.632053,BRIGADE GROUP,4-Nov-20,3937884,Brigade Bricklane,,,,
182,547,1-Sep-22,1,5282,1,1,771760,1,12.875308,1,Mysore Road,77.448115,Sowparnika Projects & Infrastructure Pvt Ltd.,26-Sep-20,2889254,Sowparnika Pranathi,Mysore Road,0.98,1.142857143,2.442857143
183,1453,1-Dec-22,2,5603,3,3,487989,1,12.993348,1,Whitefield,77.806152,Sowparnika Projects & Infrastructure Pvt Ltd.,19-Sep-20,8141159,Sowparnika Columns,,,,
184,1235,1-Sep-22,1,4599,2,2,1035336,1,12.940077,1,Marathahalli,77.741235,UNITED INFRASTRUCTURES,7-Nov-20,5679765,United Highlands,,,,
185,994,1-Jun-23,,3299,,2,1008150,0,12.739619,,Hallehalli,77.750167,DS-MAX Properties Pvt Ltd,21-Oct-20,3280000,DS Max Sovereign,,,,
186,782,1-Apr-25,1,10858,2,2,903171,1,13.021555,,KR Puram,77.705723,Assetz,17-Nov-20,8093700,Assetz Sun and Sanctum,KR Puram,4.43,1.222222222,3.866666667
187,1158,1-Dec-22,2,5603,2,2,487989,1,12.993348,1,Whitefield,77.806152,Sowparnika Projects & Infrastructure Pvt Ltd.,19-Sep-20,6488274,Sowparnika Columns,,,,
188,1760,1-Jun-24,,6040,3,3,1011125,0,12.9600048,,Siddapura,77.7281292,Spectra Constructions Pvt. Ltd.,3-Nov-20,10630400,Spectra Raaya,,,,
189,1275,1-Jun-24,,6040,2,2,1011125,0,12.9600048,,Siddapura,77.7281292,Spectra Constructions Pvt. Ltd.,17-Nov-20,7701000,Spectra Raaya,,,,
190,2852,1-Nov-20,,6500,,4,555193,0,12.9755233,,Whitefield,77.7710848,Mahalakshmi builders & developers,17-Nov-20,18538000,Mahalakshmi Misty Meadows,,,,
191,1639,0,1,2499,3,3,64208,1,12.781538,1,Attibele,77.781848,DS-MAX Properties Pvt Ltd,20-Oct-20,4097000,DS Max Sarovar,Bommasandra,4.97,2.555555556,4.122222222
192,799,1-Jun-24,1,4150,2,2,902278,1,13.145463,1,Bagalur,77.683658,Brigade Enterprises Ltd,31-Oct-20,3316649,Brigade El Dorado,,,,
193,1710,0,4,4550,3,3,224583,1,13.002891,1,Virgonagar,77.686773,Sai deep,21-Oct-20,7780500,Saideep Hulas,KR Puram,4.96,2.888888889,4.2
194,802,1-Sep-22,1,5282,2,2,771760,1,12.875308,1,Mysore Road,77.448115,Sowparnika Projects & Infrastructure Pvt Ltd.,26-Sep-20,4236164,Sowparnika Pranathi,Mysore Road,0.98,1.142857143,2.442857143
195,994,1-Jan-21,,3229,2,2,874683,1,13.070384,1,Hennur,77.658909,DS-MAX Properties Pvt Ltd,20-Oct-20,3260000,DS Max Sage,,,,
196,996,1-Jun-21,1,5631,2,3,554865,1,12.855148,1,Sarjapur  Road,77.785436,Sowparnika Projects & Infrastructure Pvt Ltd.,18-Sep-20,5608476,Sowparnika Flamenco,Sarjapur Road,5,2.888888889,4.166666667
197,1750,1-Dec-20,4,5606,3,3,801882,1,12.892064,1,Kudlu Gate,77.637772,NYK Homes,17-Nov-20,9810500,NYK Metro Urbano,,,,
198,822,1-Jun-21,1,5631,2,2,554865,0,12.855148,,Sarjapur  Road,77.785436,Sowparnika Projects & Infrastructure Pvt Ltd.,18-Sep-20,4628682,Sowparnika Flamenco,Sarjapur Road,5,2.888888889,4.166666667
199,899,0,1,4839,2,2,778661,,22.339981,,Hongasandra,73.1949793,,17-Nov-20,4350000,Prabhavathi Meghana Towers,,,,
200,1174,0,1,2500,2,2,64208,1,12.781538,1,Attibele,77.781848,DS-MAX Properties Pvt Ltd,20-Oct-20,2935000,DS Max Sarovar,Bommasandra,4.97,2.555555556,4.122222222
201,450,1-Jun-21,1,5630,1,1,554865,0,12.855148,,Sarjapur  Road,77.785436,Sowparnika Projects & Infrastructure Pvt Ltd.,18-Sep-20,2533950,Sowparnika Flamenco,Sarjapur Road,5,2.888888889,4.166666667
202,850,1-Apr-22,,8919,2,2,1048892,0,13.1624146,,Yelahanka,77.6260737,SMR BLUE VALLEY PROJECTS PVT LTD.,17-Nov-20,7582000,SMR Vinay Gateway,International Airport,0.8,2.111111111,2.533333333
203,1315,0,1,4109,2,2,493577,1,13.084095,1,Vidyaranyapura,77.541327,SMR Builders Pvt. Ltd,17-Nov-20,5405000,SMR Vinay Estella,,,,
204,1929,1-Jul-23,,4653,3,3,897811,0,12.837105,,Electronics City Phase 1,77.678233,Columbia Developers Pvt Ltd,13-Nov-20,8975637,Columbia Aaltius,Bommasandra,4.31,1.777777778,4.011111111
205,1383,1-Jul-23,,4653,2,2,897811,0,12.837105,,Electronics City Phase 1,77.678233,Columbia Developers Pvt Ltd,13-Nov-20,6435099,Columbia Aaltius,Bommasandra,4.31,1.777777778,4.011111111
206,1075,1-Aug-25,,5619,,3,1036682,0,13.064241,,Budigere Cross,77.744726,Shriram Properties Limited,12-Nov-20,6000000,Shriram Codename Yuva,,,,
207,775,1-Aug-25,,5468,,2,1036682,0,13.064241,,Budigere Cross,77.744726,Shriram Properties Limited,12-Nov-20,4200000,Shriram Codename Yuva,,,,
208,1485,1-Jun-21,1,8417,2,2,293367,1,12.905694,1,JP Nagar,77.572122,Shriram Properties Limited,12-Nov-20,12500000,Shriram Southern Crest,,,,
209,1726,1-Dec-20,1,5480,3,3,44710,1,12.878372,1,Hosa Road,77.670869,Mahaveer Group,6-Nov-20,9458480,Mahaveer Ranches,Electronic City,4.31,1.777777778,4.011111111
210,1877.15,0,,11756,3,3,41046,1,12.920816,1,Hosakerehalli,77.536585,Tata Housing,31-Oct-20,22069766,Tata The Promont,,,,
211,1368,1-Dec-21,1,4750,2,2,1000321,1,12.857296,1,Bannerghatta Road,77.556368,Anand Group,3-Nov-20,6498000,Anand Alpine,,,,
212,1536,0,,8138,3,3,93216,1,12.975908,,Marathahalli,77.697199,Durga projects & infrastructure pvt. ltd,31-Oct-20,12499968,Durga Petals,Marathahalli,4.88,2.333333333,4.277777778
213,1515,0,1,3050,2,3,239419,1,13.006376,1,Belathur,77.749188,LBI Properties,8-Oct-20,4620750,LBI Bliss,Whitefield,4.96,2.888888889,4.2
214,807.84,1-Mar-25,,9446,,3,1044107,0,12.869575,,Begur,77.634331,Assetz,17-Nov-20,6751200,Canvas and Cove,Electronic City,4.41,1.555555556,3.822222222
215,666.61,1-Mar-25,,9408,,2,1044107,0,12.869575,,Begur,77.634331,Assetz,17-Nov-20,6177754,Canvas and Cove,Electronic City,4.41,1.555555556,3.822222222
216,1564,1-Dec-20,1,7161,3,3,422885,1,12.964791,1,Whitefield,77.757524,Goyal & Co  Hariyana Group,17-Nov-20,10591408,Orchid Whitefield,Whitefield,4.96,2.888888889,4.2
217,1350,1-Dec-20,,7438,,2,422885,0,12.964791,,Whitefield,77.757524,Goyal & Co  Hariyana Group,17-Nov-20,8517150,Orchid Whitefield,Whitefield,4.96,2.888888889,4.2
218,1419,0,2,4228,2,2,401277,1,12.8647,1,Kanakpura Road,77.525585,ELEGANT BUILDERS AND DEVELOPERS,10-Nov-20,6000000,Elegant Whispering Winds,,,,
219,1839,0,2,4228,3,3,401277,1,12.8647,1,Kanakpura Road,77.525585,ELEGANT BUILDERS AND DEVELOPERS,10-Nov-20,7775292,Elegant Whispering Winds,,,,
220,1140,0,,5005,2,2,1008477,0,12.887861,,Kanakpura Road,77.542902,ELEGANT BUILDERS AND DEVELOPERS,10-Nov-20,5700000,Elegant Altima,,,,
221,1667,0,,4999,3,3,1008477,0,12.887861,,Kanakpura Road,77.542902,ELEGANT BUILDERS AND DEVELOPERS,10-Nov-20,8318330,Elegant Altima,,,,
222,1380,1-Dec-21,1,6068,2,2,498983,1,13.027908,1,Whitefield,77.751122,Sumadhura Infracon Pvt. Ltd.,6-Nov-20,8038620,Sumadhura Eden Garden,Whitefield,4.96,2.888888889,4.2
223,1523,1-Dec-21,1,5996,3,3,498983,1,13.027908,1,Whitefield,77.751122,Sumadhura Infracon Pvt. Ltd.,6-Nov-20,8824977,Sumadhura Eden Garden,Whitefield,4.96,2.888888889,4.2
224,1490,0,,5528,2,2,129065,0,13.2335434,,Devanahalli,77.719573,BRIGADE GROUP,4-Nov-20,8236720,Brigade Orchards Apartments,International Airport,0.8,2.111111111,2.533333333
225,1780,1-Dec-23,,5333,3,3,1002041,0,13.099431,,Yelahanka,77.612027,BSCPL Infrastructure Ltd,19-Oct-20,9492740,Bollineni Astra,,,,
226,1245,1-Dec-23,,5333,2,2,1002041,0,13.099431,,Yelahanka,77.612027,BSCPL Infrastructure Ltd,19-Oct-20,6639585,Bollineni Astra,,,,
227,1159,1-Mar-23,,6653,,2,1000528,0,12.885259,,Sarjapur  Road,77.704148,Assetz,6-Nov-20,7700000,Assetz 63 Degree East  Tower B,Sarjapur Road,5,2.888888889,4.166666667
228,1544,1-Sep-24,2,5180,3,3,904960,1,12.894545,1,Sarjapur  Road,77.767733,Godrej Properties Limited,24-Oct-20,7948512,Godrej 24,,,,
229,1260,0,1,6079,2,2,11914,1,12.805315,1,Bommasandra,77.677003,IT Estates Garden Residency,1-Oct-20,7799400,IT Garden Residency,,,,
230,1522,0,2,5256,3,3,0,,12.913618,,3rd Stage Raja Rajeshwari Nagar,77.51794,aasare realtors,10-Oct-20,8000000,ON REQUEST,,,,
231,1290,1-Apr-22,,4980,2,2,776638,0,13.038629,,Whitefield,77.75161,Ruchira Projects Pvt Ltd,12-Nov-20,6424200,Ruchira Iris,Whitefield,4.43,1.222222222,3.866666667
232,1715,1-Apr-22,,4984,3,3,776638,0,13.038629,,Whitefield,77.75161,Ruchira Projects Pvt Ltd,12-Nov-20,8547560,Ruchira Iris,Whitefield,4.43,1.222222222,3.866666667
233,1656,1-Jun-23,,3999,3,3,336649,1,12.929119,1,Kengeri,77.499608,KRS EVERGREEN STRUCTURES,30-Oct-20,6622344,Pioneer KRS Park Royal,Mysore Road,0.98,1.142857143,2.442857143
234,1303,1-Jun-23,,3999,2,2,336649,1,12.929119,1,Kengeri,77.499608,KRS EVERGREEN STRUCTURES,30-Oct-20,5210697,Pioneer KRS Park Royal,Mysore Road,0.98,1.142857143,2.442857143
235,1700,1-Dec-21,2,4499,3,3,353755,1,12.919369,1,Varthur Road,77.73656,Sai Purvi Developers,12-Nov-20,7648300,Purvi Symphony,"Varthur Main Road, Whitefield",3.37,1.444444444,3.644444444
236,1950,0,2,4104,3,3,493577,1,13.084095,1,Vidyaranyapura,77.541327,SMR Builders Pvt. Ltd,17-Nov-20,8014000,SMR Vinay Estella,,,,
237,794.58,1-Dec-21,,6972,2,2,1002769,0,12.946034,,Varthur,77.752788,Aditya Constructions,6-Nov-20,5580000,Adithya Lujoso,,,,
238,2441.222,0,,0,4,4,41046,1,12.920816,1,Hosakerehalli,77.536585,Tata Housing,31-Oct-20,0,Tata The Promont,,,,
239,1260,1-Dec-23,,6471,2,2,498979,0,13.041788,,Jalahalli,77.547696,Renaissance Holdings & Developers (P)Ltd.,17-Nov-20,8153460,Renaissance Reserva,,,,
240,970.8,1-Dec-21,,6875,3,3,1002769,0,12.946034,,Varthur,77.752788,Aditya Constructions,6-Nov-20,6660000,Adithya Lujoso,,,,
241,1785,1-Dec-23,,6471,,3,498979,0,13.041788,,Jalahalli,77.547696,Renaissance Holdings & Developers (P)Ltd.,8-Sep-20,11550735,Renaissance Reserva,,,,
242,2664,1-Dec-21,3,4750,4,4,1000321,1,12.857296,1,Bannerghatta Road,77.556368,Anand Group,3-Nov-20,12654000,Anand Alpine,,,,
243,1769,1-Dec-21,2,4750,2,3,1000321,1,12.857296,1,Bannerghatta Road,77.556368,Anand Group,3-Nov-20,8402750,Anand Alpine,,,,
244,1525,0,2,4066,2,3,4652,,12.812603,,Sarjapur  Road,77.78258,,15-Nov-20,6200000,Shriram Smrithi,,,,
245,1345,1-Dec-21,2,4499,2,2,353755,1,12.919369,1,Varthur Road,77.73656,Sai Purvi Developers,12-Nov-20,6051155,Purvi Symphony,"Varthur Main Road, Whitefield",3.37,1.444444444,3.644444444
246,2472,0,1,60680,3,3,0,,12.971689,,Shanthala Nagar,77.600548,,26-Aug-20,150000000,Embassy Casabella,St. Marks Road,5,3.111111111,4.388888889
247,1726,0,1,5480,3,3,44710,1,12.878372,1,Hosa Road,77.670869,Mahaveer Group,6-Nov-20,9458480,Mahaveer Ranches,Electronic City,4.31,1.777777778,4.011111111
248,1265,0,1,6325,2,2,808682,,13.0568653,,Thanisandra,77.6235264,,17-Nov-20,7800000,Bhartiya City Nikoo Homes Phase 1,,,,
249,6232,0,3,20349,4,4,0,,12.9716,,Rajaji Nagar,77.59456,,1-Nov-20,99712000,Pheonix Kessaku Bangalore 1 west,Lavelle Road,5,3,4.377777778
250,2555,0,2,5500,3,3,39582,1,13.036341,1,Yeshwanthpur,77.534752,Platinum City,21-Oct-20,14052500,IBC Platinum City,,,,
251,2798,0,2,5878,4,3,45894,0,13.137723,,Yelahanka,77.569398,Vajram Group,22-Oct-20,16788000,Vajram Tiara,Yelahanka,1.5,1,3.2
252,917,1-Mar-23,2,8443,2,2,330349,1,13.078341,1,Thanisandra,77.635516,Vajram Group,17-Nov-20,7848000,Vajram Newtown,,,,
253,1205,1-Mar-23,2,8630,3,3,330349,1,13.078341,1,Thanisandra,77.635516,Vajram Group,17-Nov-20,10400000,Vajram Newtown,,,,
254,1580,0,,5499,2,2,550285,0,12.907953,,Uttarahalli,77.551849,S.B. Urbanscapes,28-Oct-20,8688420,S B Skanda Lake Front,Uttarahalli,4.29,1.333333333,3.777777778
255,2660,0,4,8900,4,3,88210,,12.960101,,Whitefield,77.741899,,8-Jul-20,23674000,Midtown Rhythm,"Varthur Main Road, Whitefield",4.96,2.888888889,4.2
256,1955,0,,5499,4,4,550285,0,12.907953,,Uttarahalli,77.551849,S.B. Urbanscapes,28-Oct-20,10750545,S B Skanda Lake Front,Uttarahalli,4.29,1.333333333,3.777777778
257,833,0,2,4398,2,2,1046407,1,12.789515,1,Jigani,77.626911,Sanfield Infratech,21-Oct-20,3660250,Sanfield Raaga,,,,
258,1923,1-Apr-21,,5488,3,3,417107,1,13.15012,1,Yelahanka,77.617949,Mahaveer Group,30-Oct-20,10553424,Mahaveer Celesse,,,,
259,1217,1-Apr-21,1,5488,2,2,417107,0,13.15012,1,Yelahanka,77.617949,Mahaveer Group,30-Oct-20,6678896,Mahaveer Celesse,,,,
260,1133,0,2,8137,2,2,93216,1,12.975908,1,Marathahalli,77.697199,Durga projects & infrastructure pvt. ltd,31-Oct-20,9220000,Durga Petals,Marathahalli,4.88,2.333333333,4.277777778
261,497,0,,4463,1,1,1046407,1,12.789515,1,Jigani,77.626911,Sanfield Infratech,21-Oct-20,2178000,Sanfield Raaga,,,,
262,3850,1-Feb-21,,5194,,4,1049805,0,13.011175,,KR Puram,77.703853,Sahithi Constructions & Developers,4-Nov-20,19996900,Sahithi Residency,,,,
263,1750,1-Jun-21,2,9000,3,3,38168,1,12.909761,,BTM 2nd Stage,77.60981,Liveinn Buildtech Pvt. Ltd.,5-Nov-20,15750000,Green City Eutopia,,,,
264,1472,0,1,4600,3,3,195383,1,12.884332,1,Vishwapriya Layout,77.628042,Individual Consultant,8-Oct-20,6771200,Aashrayaa Eternia,Bommanahalli,4.41,1.555555556,3.822222222
265,1911,0,4,17997,3,3,462383,1,12.92058,1,8th Block Jayanagar,77.57862,sumo properties,17-Nov-20,34398000,Shravanee Sumo,Jayanagar,5,2.444444444,4.366666667
266,2675,0,2,9719,3,3,365691,,13.046788,,Chikkabidarakallu,77.490245,,28-Oct-20,26000000,Godrej Gold County,,,,
267,1780,0,,5394,3,3,129065,0,13.2335434,,Devanahalli,77.719573,BRIGADE GROUP,4-Nov-20,9603100,Brigade Orchards Apartments,International Airport,0.8,2.111111111,2.533333333
268,1396,1-Mar-23,,6678,,3,1000528,0,12.885259,,Sarjapur  Road,77.704148,Assetz,6-Nov-20,9275024,Assetz 63 Degree East  Tower B,Sarjapur Road,5,2.888888889,4.166666667
269,2181,0,3,8024,3,4,0,,12.9544159,,Marathahalli,77.7006238,,28-Jul-20,17500000,Subhiksha   Courette,,,,
270,976,0,1,7173,2,2,0,,12.905939,,Carmelaram,77.705426,,17-Nov-20,7000000,on request,,,,
271,2262,1-May-23,,0,4,4,812564,0,13.024474,,Whitefield,77.762022,Assetz,5-Nov-20,15000000,Assetz Marq 2,Whitefield,4.96,2.888888889,4.2
272,1906,1-May-23,,6808,3,3,812564,0,13.024474,,Whitefield,77.762022,Assetz,5-Nov-20,12700000,Assetz Marq 2,Whitefield,4.96,2.888888889,4.2
273,1498,1-Mar-21,,4000,,3,1027553,0,12.932428,,Varthur,77.728964,Citihut Realty,6-Nov-20,5992000,MVR Pride,Whitefield,3.37,1.444444444,3.644444444
274,1580,0,2,7278,3,3,83460,,13.042865,,Jalahalli,77.520133,,17-Nov-20,11500000,Vaishnavi Gardenia,Jalahalli,4.2,1.444444444,3.922222222
275,1559,0,,4000,,3,768448,0,12.8244445,,Electronics City Phase 1,77.6537958,Citihut Realty,27-Oct-20,6236000,Jhanavi Capetown,Electronic City,4.31,1.777777778,4.011111111
276,1405,0,,5068,3,3,770000,0,12.884905,,Kasavanhalli,77.681997,GRC INFRA PVT. LTD,13-Nov-20,7077220,GRC Subhiksha,Sarjapur Road,4.31,1.777777778,4.011111111
277,1280,0,,5500,2,2,39582,0,13.036341,,Yeshwanthpur,77.534752,Platinum City,21-Oct-20,7040000,IBC Platinum City,,,,
278,1480,1-Nov-20,2,5449,2,3,486287,1,12.964036,1,Whitefield,77.749936,Spad Classic Developers,29-Sep-20,8064520,Nakshatra Nestilo,,,,
279,1540,1-Jan-21,,5049,3,3,1027611,1,12.889055,1,7th Phase JP Nagar,77.571982,Hi Living Homes,4-Nov-20,7775460,Lorven Urban Crest,,,,
280,630,1-Feb-23,,4855,1,1,502961,1,12.899369,1,Kengeri,77.482685,Vaastu Properties,11-Nov-20,3058650,Vaastu Tranquil,,,,
281,1100,1-Feb-23,,4855,2,2,502961,1,12.899369,1,Kengeri,77.482685,Vaastu Properties,11-Nov-20,5340500,Vaastu Tranquil,,,,
282,1150,0,3,3913,2,2,104251,,12.978472,,Byrasandra ,77.667208,,28-Oct-20,4500000,Mathapathi Residency,CV Raman Nagar,4.28,1.888888889,3.822222222
283,1480,1-Dec-20,2,5449,2,3,486287,1,12.964036,1,Whitefield,77.749936,Spad Classic Developers,29-Sep-20,8064520,Nakshatra Nestilo,,,,
284,1205,1-Dec-20,2,5449,2,2,486287,1,12.964036,1,Whitefield,77.749936,Spad Classic Developers,29-Sep-20,6566045,Nakshatra Nestilo,,,,
285,1205,1-Nov-20,2,5449,2,2,486287,1,12.964036,1,Whitefield,77.749936,Spad Classic Developers,29-Sep-20,6566045,Nakshatra Nestilo,,,,
286,3450,0,4,6000,5,4,45894,0,13.137723,,Yelahanka,77.569398,Vajram Group,22-Oct-20,20700000,Vajram Tiara,Yelahanka,1.5,1,3.2
287,1363,0,,4000,,2,768448,0,12.8244445,,Electronics City Phase 1,77.6537958,Citihut Realty,27-Oct-20,5452000,Jhanavi Capetown,Electronic City,4.31,1.777777778,4.011111111
288,1830,0,,5499,3,3,550285,0,12.907953,,Uttarahalli,77.551849,S.B. Urbanscapes,28-Oct-20,10063170,S B Skanda Lake Front,Uttarahalli,4.29,1.333333333,3.777777778
289,1270,0,1,3999,2,2,407008,1,12.803357,1,Bommasandra,77.671441,Gomati Infratech,17-Nov-20,5078730,Gomati Iris,Bommasandra,4.97,2.555555556,4.122222222
290,1575,0,,3999,3,3,407008,0,12.803357,,Bommasandra,77.671441,Gomati Infratech,2-Nov-20,6298425,Gomati Iris,Bommasandra,4.97,2.555555556,4.122222222
291,1844,1-Dec-21,2,4667,3,3,896155,1,12.86328,1,Hosa Road,77.648621,Mahaveer Group,6-Nov-20,8605948,Mahaveer Trident,,,,
292,891,1-Dec-22,,3770,2,2,764649,1,13.134,1,Yelahanka,77.480375,Arihant Developers,13-Nov-20,3360852,Seasons Avenue,,,,
293,1831,1-Apr-22,,6029,,3,134333,0,13.016205,,Ramamurthy Nagar,77.67641,V Group,9-Nov-20,11039099,V Classic,Rammurthy Nagar,4.54,1.444444444,3.722222222
294,1481,1-Jan-21,1,4299,3,3,1029943,1,13.035547,,Hennur Road,77.640771,SRI BALAJI SHELTERS,17-Nov-20,6366819,Sri Balaji Emerald,Hennur,4.72,1.555555556,3.8
295,1190,1-Jan-21,2,4299,2,2,1029943,1,13.035547,,Hennur Road,77.640771,SRI BALAJI SHELTERS,17-Nov-20,5115810,Sri Balaji Emerald,Hennur,4.72,1.555555556,3.8
296,1470,0,1,6859,2,2,315383,1,12.909083,1,Harlur,77.669336,Shriram Properties Limited,12-Nov-20,8570100,Shriram Chirping Woods,Sarjapur Road,5,2.888888889,4.166666667
297,1565,1-Dec-21,,4890,3,3,872860,0,12.974287,,Whitefield,77.757014,Disha GardenView LLP,12-Nov-20,7652850,Disha Courtyard,Whitefield,4.96,2.888888889,4.2
298,1200,0,1,4499,2,2,791335,1,12.879863,1,Kanakpura Road,77.548029,Balaji Developers,9-Nov-20,5398800,Balaji Heritage,,,,
299,1590,1-Dec-22,,5249,,3,1032508,0,12.930953,,Varthur,77.742095,Candeur Constructions,10-Nov-20,8345910,Candeur Signature,"Varthur Main Road, Whitefield",3.37,1.444444444,3.644444444
300,988,0,1,9615,1,1,40230,1,12.938284,1,Koramangala,77.609343,Esteem Splendor,6-Nov-20,9500000,Esteem Splendor,,,,
301,1620,1-May-21,2,7634,2,3,862136,1,13.06501,1,Jalahalli,77.537015,Renaissance Holdings & Developers (P)Ltd.,6-Nov-20,12367080,Renaissance Shanks Sunnyside,,,,
302,1814,0,,5415,3,3,325007,0,12.8656865,,Bannerghatta Road,77.6172991,Windsor Builders,4-Nov-20,9796000,Windsor Troika,,,,
303,1417,0,,5395,2,2,325007,0,12.8656865,,Bannerghatta Road,77.6172991,Windsor Builders,17-Nov-20,7646000,Windsor Troika,,,,
304,1226,1-Apr-22,,6029,,2,134333,0,13.016205,,Ramamurthy Nagar,77.67641,V Group,17-Nov-20,7391554,V Classic,Rammurthy Nagar,4.54,1.444444444,3.722222222
305,1098,1-Mar-21,,4000,,2,1027553,0,12.932428,,Varthur,77.728964,Citihut Realty,6-Nov-20,4392000,MVR Pride,Whitefield,3.37,1.444444444,3.644444444
306,1260,1-Jan-21,,5049,2,2,1027611,1,12.889055,1,7th Phase JP Nagar,77.571982,Hi Living Homes,4-Nov-20,6361740,Lorven Urban Crest,,,,
307,3000,0,4,10666,4,4,48706,,12.915329,,JP Nagar,77.584703,,25-Feb-20,32000000,Adarsh Palace,,,,
308,2032,1-Mar-22,,7499,,3,1008525,0,12.954472,,Vijayanagar,77.534972,A Peace Projects LLP,5-Nov-20,15237968,Peace Sapphire,,,,
309,1224,0,0,8986,2,2,18206,,12.975841,,Rajaji Nagar,77.557095,,13-Mar-20,11000000,Purva Sunflower,,,,
310,2300,0,,0,,3,56424,0,12.838169,,Electronic City Phase II,77.684694,Esteem Emblem,6-Nov-20,0,Esteem Emblem,Electronic City,4.31,1.777777778,4.011111111
311,660,0,,5303,,1,56424,0,12.838169,,Electronic City Phase II,77.684694,Esteem Emblem,6-Nov-20,3500000,Esteem Emblem,Electronic City,4.31,1.777777778,4.011111111
312,1423,0,1,5621,2,3,522135,,12.884383,,Konanakunte,77.561959,,27-Jul-20,8000000,Shreeniketana Apartment,Kanakapura Road,4.42,1.666666667,3.811111111
313,1150,0,,5157,2,2,770000,0,12.884905,,Kasavanhalli,77.681997,GRC INFRA PVT. LTD,17-Nov-20,5943460,GRC Subhiksha,Sarjapur Road,4.31,1.777777778,4.011111111
314,1465,1-Mar-22,,6299,,3,1031848,0,12.965747,,Old Airport Road,77.680785,Srinidhi Designbuild Pvt Ltd,2-Nov-20,9228035,Srinidhi The Central Park,,,,
315,1500,0,2,6133,3,3,257,,13.04804134,,Agrahara,77.60731506,aasare realtors,10-Oct-20,9200000,Yelahanka,Hebbal,4.72,2.333333333,4.033333333
316,1259,1-Dec-21,2,4729,2,2,896155,1,12.86328,1,Hosa Road,77.648621,Mahaveer Group,6-Nov-20,5841000,Mahaveer Trident,,,,
317,980,0,1,6076,2,2,420433,1,12.896582,1,Banashankari,77.529799,Vikas Builders,6-Nov-20,5954480,Vikas Hills View Meadows,Banashankari,4.29,1.333333333,3.777777778
318,1300,0,2,4076,2,2,396137,,13.020462,,Hoysalanagar,77.663546,,21-Sep-20,5300000,Sai Sai Jaya Hibiscus,Rammurthy Nagar,4.9,1.555555556,4.144444444
319,1370,1-Mar-22,,6299,,2,1031848,0,12.965747,,Old Airport Road,77.680785,Srinidhi Designbuild Pvt Ltd,17-Nov-20,8629630,Srinidhi The Central Park,,,,
320,546,1-Dec-22,,3653,1,1,764649,1,13.134,1,Yelahanka,77.480375,Arihant Developers,13-Nov-20,1867320,Seasons Avenue,,,,
321,1265,0,2,5296,2,2,0,,12.970035,,Whitefield,77.74932,,27-Sep-20,6699000,Mahaveer Dazzle,,,,
322,675,1-Dec-21,,4890,1,1,872860,0,12.974287,,Whitefield,77.757014,Disha GardenView LLP,12-Nov-20,3300750,Disha Courtyard,Whitefield,4.96,2.888888889,4.2
323,615,1-Dec-22,,5249,1,1,1032508,1,12.930953,,Varthur,77.742095,Candeur Constructions,10-Nov-20,3228135,Candeur Signature,"Varthur Main Road, Whitefield",3.37,1.444444444,3.644444444
324,708,0,1,5579,1,1,14896,1,13.102389,1,Dasanapura,77.441712,Tata Housing,21-Oct-20,3950000,Tata New Haven,Yeshwantpur,4.37,2.222222222,4.133333333
325,1450,0,2,4499,2,3,791335,1,12.879863,1,Kanakpura Road,77.548029,Balaji Developers,9-Nov-20,6523550,Balaji Heritage,,,,
326,1260,1-Dec-22,,5249,,2,1032508,0,12.930953,,Varthur,77.742095,Candeur Constructions,10-Nov-20,6613740,Candeur Signature,"Varthur Main Road, Whitefield",3.37,1.444444444,3.644444444
327,1428,0,2,5583,2,2,82584,1,12.905131,1,Sarjapur  Road,77.691149,Zippserv GroupBuy,6-Nov-20,7972524,Vizipa Optima,Sarjapur Road,5,2.888888889,4.166666667
328,1578,0,3,5199,2,2,771708,0,12.912648,,Rajarajeshwari Nagar,77.509483,Lakshmiwan Polymers Private Limited,27-Oct-20,8204022,Zotra Eden Park,,,,
329,681,1-Jun-21,1,5440,1,2,769529,1,12.986536,1,Whitefield,77.822097,Sowparnika Projects & Infrastructure Pvt Ltd.,23-Oct-20,3705321,Sowparnika Indraprastha,,,,
330,1662,1-Aug-21,,6200,,3,806584,0,12.898612,,Sarjapur  Road,77.708897,Shibani,22-Oct-20,10304400,Ahad Opus,Sarjapur Road,5,2.888888889,4.166666667
331,1047.41,1-Aug-21,1,7173,2,2,806584,1,12.898612,1,Sarjapur  Road,77.708897,Shibani,22-Oct-20,7513272,Ahad Opus,Sarjapur Road,5,2.888888889,4.166666667
332,1430,0,1,6293,3,3,0,,12.90088,,Ayodya Nagar,77.58716,Sai Megha,31-Aug-20,9000000,Sai Mega Blossom,JP Nagar,5,3,4.355555556
333,2015,1-Apr-21,2,15633,3,3,0,,12.955002,,Rustam Bagh Layout,77.648699,,7-Oct-20,31500000,Chick Cottage Residences,,,,
334,622,1-Feb-21,,7154,2,2,1005641,0,12.866326,,Suraksha Nagar,77.624063,Rainvas Infraa,26-Sep-20,4482850,Rain bow Oaks,,,,
335,1110,1-Mar-22,,7499,,2,1008525,0,12.954472,,Vijayanagar,77.534972,A Peace Projects LLP,5-Nov-20,8323890,Peace Sapphire,,,,
336,1465,1-Dec-21,1,3999,3,3,792452,1,13.11427,1,Yelahanka,77.566716,A Peace Projects LLP,5-Nov-20,5858535,Peace Paramount,Yelahanka,1.5,1,3.2
337,1137,0,1,4600,2,2,195383,1,12.884332,1,Vishwapriya Layout,77.628042,Individual Consultant,8-Oct-20,5230200,Aashrayaa Eternia,Bommanahalli,4.41,1.555555556,3.822222222
338,1409,0,,5560,2,2,771694,1,13.071246,1,Sahakara Nagar,77.578714,JEEVANADI ESTATES PRIVATE LIMITED,17-Nov-20,7836858,Jeevanadi Sampoorna,,,,
339,1777,0,3,5199,3,3,771708,0,12.912648,,Rajarajeshwari Nagar,77.509483,Lakshmiwan Polymers Private Limited,27-Oct-20,9238623,Zotra Eden Park,,,,
340,1163,0,1,0,2,2,14896,1,13.102389,1,Dasanapura,77.441712,Tata Housing,21-Oct-20,6745400,Tata New Haven,Yeshwantpur,4.37,2.222222222,4.133333333
341,1270,0,2,7087,2,2,0,,12.9860377,,Kaggadasapura,77.6717004,,28-Jul-20,9000000,subhiksha habitat,,,,
342,1177,1-Dec-21,1,3999,2,2,792452,1,13.11427,1,Yelahanka,77.566716,A Peace Projects LLP,5-Nov-20,4706823,Peace Paramount,Yelahanka,1.5,1,3.2
343,1915,0,,5481,,3,771694,0,13.071246,,Sahakara Nagar,77.578714,JEEVANADI ESTATES PRIVATE LIMITED,27-Oct-20,10498030,Jeevanadi Sampoorna,,,,
344,1268,0,1,4599,2,2,415475,1,12.950052,1,Nagarbhavi,77.4978,A Peace Projects LLP,5-Nov-20,5831532,Peace Rhythm,Nagarbhavi,4.53,2,4.1
345,1195,1-Dec-21,,4890,2,2,872860,0,12.974287,,Whitefield,77.757014,Disha GardenView LLP,12-Nov-20,5843550,Disha Courtyard,Whitefield,4.96,2.888888889,4.2
346,1530,1-Jan-21,,4819,3,3,772998,1,12.933481,1,Varthur,77.748463,Camellia Infrastructures,3-Nov-20,7374150,Camellia Pride,,,,
347,995,1-Jun-21,1,5510,2,3,769529,1,12.986536,1,Whitefield,77.822097,Sowparnika Projects & Infrastructure Pvt Ltd.,23-Oct-20,5482450,Sowparnika Indraprastha,,,,
348,1300,0,1,3847,2,2,1049868,1,13.026315,1,Ramamurthy Nagar,77.68154,SpaceTag,10-Nov-20,5001100,Bhargavi Green Homes,Rammurthy Nagar,4.54,1.444444444,3.722222222
349,1614,0,3,5583,3,3,82584,1,12.905131,1,Sarjapur  Road,77.691149,Zippserv GroupBuy,6-Nov-20,9010962,Vizipa Optima,Sarjapur Road,5,2.888888889,4.166666667
350,1280,0,,5000,2,2,41890,0,12.910353,,Sarjapur  Road,77.684698,Zippserv GroupBuy,6-Nov-20,6400000,Keerthi Regalia,Sarjapur Road,5,2.888888889,4.166666667
351,1945,0,3,0,3,3,40230,1,12.938284,1,Koramangala,77.609343,Esteem Splendor,6-Nov-20,0,Esteem Splendor,,,,
352,1665,0,3,0,2,2,40230,1,12.938284,1,Koramangala,77.609343,Esteem Splendor,6-Nov-20,0,Esteem Splendor,,,,
353,1540,0,4,3750,2,3,767215,1,12.836637,1,Sarjapur  Road,77.723346,Sri Tirumala Constructions & Developers,7-Nov-20,5775000,STC Tranquil Residency,Electronic City,4.31,1.777777778,4.011111111
354,1480,1-Feb-21,,4050,2,3,1009094,0,12.926485,,Varthur,77.729278,Keystone Projects,30-Oct-20,5994000,Keystone DSR Riviera,,,,
355,1286,0,1,0,2,3,14896,1,13.102389,1,Dasanapura,77.441712,Tata Housing,21-Oct-20,7458800,Tata New Haven,Yeshwantpur,4.37,2.222222222,4.133333333
356,1120,0,1,0,2,2,94206,1,12.887067,1,Mysore Road,77.453708,PRAKRATHI CORPORATION,4-Sep-20,6035680,Brigade Panorama,,,,
357,1551,1-Nov-20,,5500,,3,1017204,0,12.988115,,Mahadevpura,77.686725,SS Builders And Developers,2-Nov-20,8530500,SS Siri Nivas,,,,
358,561,1-Jun-21,1,5638,1,1,769529,1,12.986536,1,Whitefield,77.822097,Sowparnika Projects & Infrastructure Pvt Ltd.,23-Oct-20,3162918,Sowparnika Indraprastha,,,,
359,888,0,1,0,1,1,94206,1,12.887067,1,Mysore Road,77.453708,PRAKRATHI CORPORATION,4-Sep-20,4785000,Brigade Panorama,,,,
360,1694,0,3,4599,3,3,415475,1,12.950052,1,Nagarbhavi,77.4978,A Peace Projects LLP,5-Nov-20,7790706,Peace Rhythm,Nagarbhavi,4.53,2,4.1
361,895,1-Jun-22,,6129,,1,287147,0,13.085372,,Thanisandra,77.644524,Bookurflat.com,8-Oct-20,5485455,Bhartiya City Nikoo Homes Phase 2,Jakkur,4.14,1.555555556,3.844444444
362,1210,1-Mar-21,1,6552,2,2,271835,1,12.939126,1,Balagere,77.737663,Elite Advisors,4-Nov-20,7930340,Sobha Dream Acres,,,,
363,1150,0,1,4609,2,3,1005563,,12.7995456,,Kaggalipura,77.5100822,,7-Sep-20,5300000,Brigademeadows,Kanakapura Road,4.42,1.666666667,3.811111111
364,1400,1-Jan-21,2,7143,2,3,0,,12.913416,,Sarakki Nagar,77.576775,,15-Jun-20,10000000,Vaishnavi Elegant,,,,
365,1240,0,2,5242,2,2,0,,12.92289435,,Gunjur,77.7302305,,17-Nov-20,6200000,Whistling Winds,,,,
366,1190,1-Jan-21,,4875,2,2,772998,1,12.933481,1,Varthur,77.748463,Camellia Infrastructures,3-Nov-20,5789700,Camellia Pride,,,,
367,3303,0,,5560,,4,13182,0,12.958495,,Kundalahalli,77.740372,SVS Structures,17-Nov-20,18364680,SVS Silver Woods,Whitefield,4.96,2.888888889,4.2
368,1301,0,,5560,,2,13182,0,12.958495,,Kundalahalli,77.740372,SVS Structures,17-Nov-20,7233560,SVS Silver Woods,Whitefield,4.96,2.888888889,4.2
369,1678,0,,5560,,3,13182,0,12.958495,,Kundalahalli,77.740372,SVS Structures,17-Nov-20,9329680,SVS Silver Woods,Whitefield,4.96,2.888888889,4.2
370,1239,1-Jun-22,,5490,2,2,287147,0,13.085372,,Thanisandra,77.644524,Bookurflat.com,8-Oct-20,6802110,Bhartiya City Nikoo Homes Phase 2,Jakkur,4.14,1.555555556,3.844444444
371,1375,1-Jul-25,2,4650,2,2,1046369,1,13.061571,1,Thanisandra,77.637761,VISALAKSHI HOUSING PROJECTS,17-Nov-20,6393750,Visalakshi Prakruthi,,,,
372,630,0,,3968,1,1,500221,1,12.828831,,Electronics City Phase 1,77.651195,Lavish Spaces Pvt Ltd,24-Oct-20,2500000,DS Max Starry,,,,
373,976,0,,3499,2,2,500221,1,12.828831,,Electronics City Phase 1,77.651195,Lavish Spaces Pvt Ltd,24-Oct-20,3415024,DS Max Starry,,,,
374,1180,0,2,3799,2,2,767215,1,12.836637,1,Sarjapur  Road,77.723346,Sri Tirumala Constructions & Developers,7-Nov-20,4482820,STC Tranquil Residency,Electronic City,4.31,1.777777778,4.011111111
375,1800,0,,8554,,3,406724,0,13.053021,,Hebbal,77.597271,DIVINUS INDIA PRIVATE LIMITED,12-Nov-20,15089400,Vaishnavi North 24,Hebbal,4.72,2.333333333,4.033333333
376,824,1-Dec-20,,5625,,2,1009175,0,13.010293,,Seegehalli,77.764364,Maz RD Satwik Constructions,5-Nov-20,4635000,S2 Blue Meadows,,,,
377,1245,0,1,3050,2,2,239419,1,13.006376,1,Belathur,77.749188,LBI Properties,8-Oct-20,3797250,LBI Bliss,Whitefield,4.96,2.888888889,4.2
378,2052,0,2,8100,3,3,11062,1,13.015991,1,Yeshwanthpur,77.548853,Durga projects & infrastructure pvt. ltd,13-Nov-20,16621200,Durga Flute,Yeshwantpur,4.37,2.222222222,4.133333333
379,1600,1-Feb-22,,4800,,3,895904,0,12.964707,,Mysore Road,77.549382,V2 Holdings Housing Pvt Ltd,30-Oct-20,7680000,V2 Vaishak,Vijay Nagar,0.98,1.142857143,2.442857143
380,1160,1-Feb-22,,4800,,2,895904,0,12.964707,,Mysore Road,77.549382,V2 Holdings Housing Pvt Ltd,30-Oct-20,5568000,V2 Vaishak,Vijay Nagar,0.98,1.142857143,2.442857143
381,1177,1-Jan-22,,6547,,3,1032533,0,12.836183,,Kammasandra,77.686363,SV Housing,19-Oct-20,7697250,SV Grandur,Electronic City,4.31,1.777777778,4.011111111
382,1005,0,1,6500,2,2,15696,,13.009269,,Lingarajapuram,77.629248,,3-Nov-20,6532500,Bearys Anugraha,,,,
383,1650,0,1,6369,2,3,38056,1,12.861379,1,Bannerghatta Road,77.606883,Nandi Housing,21-Aug-20,10681000,Nandi Citadel,Bannerghatta Road,4.94,2.888888889,4.222222222
384,1768,1-Jun-22,,5344,,3,287147,0,13.085372,,Thanisandra,77.644524,Bookurflat.com,8-Oct-20,9448192,Bhartiya City Nikoo Homes Phase 2,Jakkur,4.14,1.555555556,3.844444444
385,1679,1-Sep-22,,5757,,3,905532,0,12.968924,,ITPL,77.731642,M C Builders,6-Nov-20,9666003,MC Fortune,Whitefield,4.96,2.888888889,4.2
386,1360,0,,8021,2,2,40890,0,12.884801,,Hosa Road,77.667502,Property Land Marks,12-Nov-20,10908560,SJR Blue Waters,,,,
387,820,0,,6951,1,1,40890,0,12.884801,,Hosa Road,77.667502,Property Land Marks,12-Nov-20,5699820,SJR Blue Waters,,,,
388,1715,0,,6599,3,3,40890,0,12.884801,,Hosa Road,77.667502,Property Land Marks,12-Nov-20,11317285,SJR Blue Waters,,,,
389,1750,1-Aug-21,1,7099,3,3,465643,1,12.822882,1,Electronic City,77.661145,GM Infinite,12-Nov-20,12385000,GM Global Techies Town,,,,
390,1150,1-Aug-21,1,7267,2,2,465643,1,12.822882,1,Electronic City,77.661145,GM Infinite,12-Nov-20,8301000,GM Global Techies Town,,,,
391,935,0,1,5500,1,1,752785,1,12.915225,1,Sarjapur  Road,77.716197,Zippserv GroupBuy,6-Nov-20,5142500,CLPD Arcadia,,,,
392,1271,0,2,5385,2,2,752785,1,12.915225,1,Sarjapur  Road,77.716197,Zippserv GroupBuy,6-Nov-20,6700712,CLPD Arcadia,,,,
393,1386,0,2,7285,2,2,279025,1,12.9068901,1,Harlur,77.6696176,Zippserv GroupBuy,6-Nov-20,9820000,Bren Imperia,Sarjapur Road,5,2.888888889,4.166666667
394,1100,0,0,5637,2,2,0,,12.935763,,Srinivasa Nagar,77.554783,,15-Jun-20,6200000,Vaishnavi Enclave,,,,
395,824,1-Mar-22,,7196,,2,1022640,0,12.978822,,Whitefield,77.757259,ANKURAA DEVELOPERS,11-Nov-20,5929504,Ankuraa Lotus,,,,
396,1401,1-May-22,,3448,3,3,1024764,0,13.037818,,TC Palaya,77.69183,SVS Developers,27-Oct-20,4830648,SVS Springs,,,,
397,1347,0,,3499,3,3,500221,0,12.828831,,Electronics City Phase 1,77.651195,Lavish Spaces Pvt Ltd,24-Oct-20,4713153,DS Max Starry,,,,
398,1990,0,,5184,3,3,1016645,0,12.909773,,Uttarahalli,77.539568,Alps Properties,23-Oct-20,10316160,Lake Ven Bless,,,,
399,1250,1-Dec-20,,7996,3,3,491071,1,12.887889,1,Subramanyapura,77.546449,RK Constructions,16-Nov-20,9996000,RK Royal Palms,Kanakapura Road,4.42,1.666666667,3.811111111
400,934,1-Dec-20,,7997,2,2,491071,1,12.887889,1,Subramanyapura,77.546449,RK Constructions,16-Nov-20,7470000,RK Royal Palms,Kanakapura Road,4.42,1.666666667,3.811111111
401,1645,1-Jun-21,,4299,,3,511289,0,12.921053,,Varthur,77.737786,Saroj Builders,2-Nov-20,7071855,Saroj Iris,"Varthur Main Road, Whitefield",3.37,1.444444444,3.644444444
402,2080,0,2,4808,3,3,0,,12.92723,,Banashankari Stage III,77.554457,,1-Aug-20,10000000,Nandi Enclave,Banashankari,4.76,2,4.044444444
403,1380,1-Dec-21,1,6058,2,2,498983,1,13.027908,1,Whitefield,77.751122,ACREDALES,9-Nov-20,8038620,Sumadhura Eden Garden,Whitefield,4.96,2.888888889,4.2
404,1523,1-Dec-21,1,5996,3,3,498983,1,13.027908,1,Whitefield,77.751122,ACREDALES,9-Nov-20,8824977,Sumadhura Eden Garden,Whitefield,4.96,2.888888889,4.2
405,1103,1-May-21,1,4981,3,3,1045351,1,12.865847,1,Sarjapur  Road,77.766931,bavisha properties,19-Aug-20,5494043,Bavisha Gardeniaa,Sarjapur Road,5,2.888888889,4.166666667
406,1069,0,1,3555,2,2,1003605,,13.02498,,Andapura,77.69441,,17-Nov-20,3800000,Ittina Neela Andapura,KR Puram,4.54,1.444444444,3.722222222
407,1814,0,4,0,3,3,94206,1,12.887067,1,Mysore Road,77.453708,PRAKRATHI CORPORATION,4-Sep-20,0,Brigade Panorama,,,,
408,1360,0,3,8519,2,2,0,,12.89741,,Billekahalli,77.61068,,19-Sep-20,11500000,Epitome Crowne,,,,
409,1575,1-Jul-25,2,4650,2,3,1046369,1,13.061571,1,Thanisandra,77.637761,VISALAKSHI HOUSING PROJECTS,17-Nov-20,7323750,Visalakshi Prakruthi,,,,
410,1795,0,,8143,4,3,18206,1,12.975841,1,Rajaji Nagar,77.557095,INFIN Prop,14-Oct-20,14616685,Purva Sunflower,,,,
411,1343,0,,8006,2,2,18206,1,12.975841,1,Rajaji Nagar,77.557095,INFIN Prop,14-Oct-20,10752058,Purva Sunflower,,,,
412,1369,0,1,7011,2,2,39868,,12.868009,,Hosa Road,77.661224,,10-Aug-20,9100000,Sobha Silicon Oasis,,,,
413,867,31-Dec-21,2,3229,2,2,805478,,12.807387,,Attibele,77.775925,,11-Nov-20,2800000,Celebrity Pride Avenue,,,,
414,1960,0,4,6104,3,3,12904,1,12.859553,1,Begur Road,77.615132,Epcot Downtown Ventures Private Limited,3-Nov-20,11963840,SNN Raj Serenity,,,,
415,1846.48,0,,6008,3,3,18264,0,12.873076,,9th Phase JP Nagar,77.571467,HM Group,5-Nov-20,11092614,HM Indigo,JP Nagar,5,3,4.355555556
416,1466.13,0,,6008,2,2,18264,0,12.873076,,9th Phase JP Nagar,77.571467,HM Group,17-Nov-20,8809194,HM Indigo,JP Nagar,5,3,4.355555556
417,1410,0,,4100,2,3,849809,0,12.829951,,Electronics City Phase 1,77.651372,5 Elements Realty,16-Nov-20,5781000,5 Elements GR Gardenia,,,,
418,1095,0,,4100,2,2,849809,0,12.829951,,Electronics City Phase 1,77.651372,5 Elements Realty,16-Nov-20,4489500,5 Elements GR Gardenia,,,,
419,1285,1-Dec-21,,5500,,2,1047401,0,13.117279,,Yelahanka,77.597539,5 Elements Realty,16-Nov-20,7067500,G R Opal,Yelahanka,1.5,1,3.2
420,1690,1-Dec-21,,5500,,3,1047401,0,13.117279,,Yelahanka,77.597539,5 Elements Realty,16-Nov-20,9295000,G R Opal,Yelahanka,1.5,1,3.2
421,1285,1-Jun-21,,5500,,2,1047392,0,13.125941,,Yelahanka,77.597762,5 Elements Realty,16-Nov-20,7067500,G R Onyx,Yelahanka,1.5,1,3.2
422,1800,1-Jun-21,,5500,,3,1047392,0,13.125941,,Yelahanka,77.597762,5 Elements Realty,16-Nov-20,9900000,G R Onyx,Yelahanka,1.5,1,3.2
423,1555,0,,5000,3,3,771673,0,13.096412,,Yelahanka,77.560548,5 Elements Realty,16-Nov-20,7775000,5 Elements Eshwaree Orchids,Yelahanka,1.5,1,3.2
424,1270,0,,5000,2,2,771673,0,13.096412,,Yelahanka,77.560548,5 Elements Realty,16-Nov-20,6350000,5 Elements Eshwaree Orchids,Yelahanka,1.5,1,3.2
425,1100,0,,5200,,2,52296,0,13.116711,,Yelahanka New Town,77.572765,5 Elements Realty,16-Nov-20,5720000,Saketh Duo Marvel,,,,
426,1330,0,,5200,,3,52296,0,13.116711,,Yelahanka New Town,77.572765,5 Elements Realty,16-Nov-20,6916000,Saketh Duo Marvel,,,,
427,1241,1-Jan-21,1,4536,2,2,1009565,1,13.036254,1,Hennur,77.640814,Thanushka Infrastructure,11-Nov-20,5620896,Thanushka Vardheeni Paradise,,,,
428,1859,1-Jun-22,,4545,,3,502909,0,12.885115,,Kanakpura Road,77.562072,Maangalya Group,17-Nov-20,8449155,Maangalya Park Avenue,,,,
429,461,1-Feb-24,1,11650,1,1,809230,1,13.09837,,Thanisandra,77.641657,DIVINUS INDIA PRIVATE LIMITED,3-Nov-20,5000006,Sobha Dream Gardens,,,,
430,655,1-Feb-24,,10918,,2,809230,0,13.09837,,Thanisandra,77.641657,DIVINUS INDIA PRIVATE LIMITED,3-Nov-20,7103475,Sobha Dream Gardens,,,,
431,1224,0,1,4120,2,2,489561,1,13.072765,1,Thanisandra,77.643173,Thanushka Infrastructure,1-Nov-20,5036720,Concord Heights,,,,
432,2150,0,,5950,4,4,374652,1,12.904199,1,Uttarahalli,77.538125,Roshan Enterprises,27-Oct-20,12792500,Roshan Gardenia,,,,
433,1185,1-Dec-22,,5585,,3,1042460,0,12.853595,,Sarjapur  Road,77.788208,SIERRA CONSTRUCTIONS,17-Nov-20,6608745,Sierra Greens,,,,
434,945,1-Dec-22,,5662,,2,1042460,0,12.853595,,Sarjapur  Road,77.788208,SIERRA CONSTRUCTIONS,17-Nov-20,5321295,Sierra Greens,,,,
435,1167,1-May-22,,3448,2,2,1024764,0,13.037818,,TC Palaya,77.69183,SVS Developers,17-Nov-20,4023816,SVS Springs,,,,
436,1746,0,,5250,2,2,1045107,1,13.048191,1,RMV 2nd Stage,77.569451,Vasumathi Fortune,10-Nov-20,9166500,Vasumathi Fortune Residency,,,,
437,1260,1-Jun-21,,4299,,2,511289,0,12.921053,,Varthur,77.737786,Saroj Builders,2-Nov-20,5416740,Saroj Iris,"Varthur Main Road, Whitefield",3.37,1.444444444,3.644444444
438,871,1-Jan-22,,6567,,2,1032533,0,12.836183,,Kammasandra,77.686363,SV Housing,19-Oct-20,5746950,SV Grandur,Electronic City,4.31,1.777777778,4.011111111
439,2111,0,,4700,,3,17512,0,12.8421725,,Gottigere,77.587418,Liveinn Buildtech Pvt. Ltd.,3-Nov-20,9921700,Maangalya Ashirwad,Bannerghatta Road,4.94,2.888888889,4.222222222
440,1918,0,,4700,,2,17512,0,12.8421725,,Gottigere,77.587418,Liveinn Buildtech Pvt. Ltd.,3-Nov-20,9014600,Maangalya Ashirwad,Bannerghatta Road,4.94,2.888888889,4.222222222
441,2500,0,3,6400,4,4,73776,,12.970484,,Whitefield,77.748738,,18-Jul-20,16000000,Samruddhi Eastlynne,Whitefield,4.96,2.888888889,4.2
442,924,0,1,3337,2,3,206107,1,12.786704,1,Attibele,77.774882,Aryan Fountain Square,14-Nov-20,3083388,Aryan Fountain Square,Bommasandra,4.97,2.555555556,4.122222222
443,837,0,2,3337,2,2,206107,1,12.786704,1,Attibele,77.774882,Aryan Fountain Square,14-Nov-20,2793069,Aryan Fountain Square,Bommasandra,4.97,2.555555556,4.122222222
444,1252,1-Sep-22,,5757,2,2,905532,0,12.968924,,ITPL,77.731642,M C Builders,6-Nov-20,7207764,MC Fortune,Whitefield,4.96,2.888888889,4.2
445,656,0,1,3659,2,2,39910,1,12.739103,1,Attibele,77.734573,Janaadhar (India) Pvt Ltd,10-Nov-20,2400304,Janaadhar Shubha Phase 2,,,,
446,656,0,1,3659,2,2,39910,1,12.739103,1,Attibele,77.734573,Janaadhar (India) Pvt Ltd,10-Nov-20,2400304,Janaadhar Shubha Phase 2,,,,
447,656,0,1,3658,2,2,39910,1,12.739103,1,Attibele,77.734573,Janaadhar (India) Pvt Ltd,17-Nov-20,2400000,Janaadhar Shubha Phase 2,,,,
448,1778,0,2,7762,3,3,279025,1,12.9068901,1,Harlur,77.6696176,Zippserv GroupBuy,6-Nov-20,13400000,Bren Imperia,Sarjapur Road,5,2.888888889,4.166666667
449,853,0,,7502,1,1,279025,1,12.9068901,1,Harlur,77.6696176,Zippserv GroupBuy,6-Nov-20,6350000,Bren Imperia,Sarjapur Road,5,2.888888889,4.166666667
450,1309,0,2,6264,2,2,427721,,12.856458,,Kanakpura Road,77.541774,,17-Nov-20,8200000,Godrej Eternity,Kanakapura Road,4.42,1.666666667,3.811111111
451,1090,0,1,6789,2,2,427721,,12.856458,,Kanakpura Road,77.541774,,2-Nov-20,7499999,Godrej Eternity,Kanakapura Road,4.42,1.666666667,3.811111111
452,1517.7099,0,,9058,2,2,405800,0,13.06526,,Budigere,77.740464,Essar Property Management,10-Nov-20,13751562,Brigade Buena Vista,Bommanahalli,4.41,1.555555556,3.822222222
453,1686,0,2,9058,3,3,405800,1,13.06526,1,Budigere,77.740464,Essar Property Management,10-Nov-20,15273474,Brigade Buena Vista,Bommanahalli,4.41,1.555555556,3.822222222
454,760,0,1,9076,1,1,405800,1,13.06526,1,Budigere,77.740464,Essar Property Management,10-Nov-20,6885600,Brigade Buena Vista,Bommanahalli,4.41,1.555555556,3.822222222
455,1650,0,2,5000,3,3,41890,1,12.910353,1,Sarjapur  Road,77.684698,Zippserv GroupBuy,6-Nov-20,8250000,Keerthi Regalia,Sarjapur Road,5,2.888888889,4.166666667
456,1683,0,3,5467,3,3,4404,,13.0134945,,Seegehalli,77.7608875,,27-Oct-20,9200000,Nitesh Flushing Meadows,,,,
457,1355,1-May-21,,5934,3,3,1032623,0,12.940294,,Varthur,77.740946,SJ Constructions,2-Nov-20,8040570,SJ Trillium,"Varthur Main Road, Whitefield",3.37,1.444444444,3.644444444
458,912,1-May-21,,6146,2,2,1032623,1,12.940294,1,Varthur,77.740946,SJ Constructions,2-Nov-20,5605152,SJ Trillium,"Varthur Main Road, Whitefield",3.37,1.444444444,3.644444444
459,1370,0,2,5256,2,3,0,,12.9717394,,Nagarbhavi,77.5132117,,4-Jun-20,7200000,parvi golden nest,,,,
460,1390,0,2,4250,3,3,776673,0,12.970312,,Nagondanahalli,77.772433,Dwaraka Builders and Developers,9-Nov-20,5907500,Dwaraka Sai Balaji Residency,Whitefield,4.96,2.888888889,4.2
461,1760,1-Jun-24,,6040,3,3,1011125,0,12.9600048,,Siddapura,77.7281292,Champion Infratech Pvt. Ltd.,10-Nov-20,10630400,Spectra Raaya,,,,
462,1275,1-Jun-24,,6040,2,2,1011125,0,12.9600048,,Siddapura,77.7281292,Champion Infratech Pvt. Ltd.,10-Nov-20,7701000,Spectra Raaya,,,,
463,1541,1-Mar-21,,5295,3,3,794153,0,12.899342,,Sarjapur  Road,77.666218,Champion Infratech Pvt. Ltd.,7-Nov-20,8159595,Poorvi Champions Height,,,,
464,1385,1-Mar-21,,5295,2,2,794153,0,12.899342,,Sarjapur  Road,77.666218,Champion Infratech Pvt. Ltd.,7-Nov-20,7333575,Poorvi Champions Height,,,,
465,1666,1-Dec-21,,6178,3,3,804539,0,13.020522,,Hebbal,77.647931,TRENDSQUARES CONSTRUCTIONS,17-Nov-20,10292548,Trendsquares Ortus,Kalyan Nagar,5,2.444444444,4.188888889
466,1239,1-Dec-21,,6178,2,2,804539,0,13.020522,,Hebbal,77.647931,TRENDSQUARES CONSTRUCTIONS,17-Nov-20,7654542,Trendsquares Ortus,Kalyan Nagar,5,2.444444444,4.188888889
467,1666,0,,6178,3,3,804539,0,13.020522,,Hebbal,77.647931,TRENDSQUARES CONSTRUCTIONS,17-Nov-20,10292548,Trendsquares Ortus,Kalyan Nagar,5,2.444444444,4.188888889
468,1239,0,,6178,2,2,804539,0,13.020522,,Hebbal,77.647931,TRENDSQUARES CONSTRUCTIONS,17-Nov-20,7654542,Trendsquares Ortus,Kalyan Nagar,5,2.444444444,4.188888889
469,1850,0,2,9730,3,3,12904,,12.859553,,Begur Road,77.615132,,17-Nov-20,18000000,SNN Raj Serenity,,,,
470,1202,0,1,4250,2,2,776673,1,12.970312,,Nagondanahalli,77.772433,Dwaraka Builders and Developers,9-Nov-20,5108500,Dwaraka Sai Balaji Residency,Whitefield,4.96,2.888888889,4.2
471,1584,0,,3300,3,3,797631,0,12.850786,,Sarjapur  Road,77.7336,Search Homes India Pvt Ltd,31-Oct-20,5227200,SR Sai Ram Residency,Sarjapur Road,4.31,1.777777778,4.011111111
472,1190,0,1,4825,2,3,6310,,13.122279,,Kenchenahalli,77.582538,,17-Nov-20,5741750,Arun Patios,,,,
473,2100,1-Nov-20,,6238,3,3,1048016,1,12.905694,1,Uttarahalli,77.545926,Doddala Developers,3-Nov-20,13100000,Lak Ven Vista,Uttarahalli,4.29,1.333333333,3.777777778
474,1225,1-Mar-21,,3900,2,2,1044392,0,12.862747,,8th Phase JP Nagar,77.575439,BMR Builders & Developers,24-Oct-20,4777500,Bhoomika Sunrise,,,,
475,1050,1-Mar-22,,5733,3,3,1045002,0,13.241621,,Ramamurthy Nagar,77.706913,StarGold Builders,9-Oct-20,6020000,Vaishnavi Vrishab,,,,
476,1100,0,1,4800,2,2,492075,,13.051535,,Mariyannapalya,77.613026,,12-Nov-20,5280000,Vikas Square,Hebbal,4.72,2.333333333,4.033333333
477,1055,1-Mar-22,,7111,,3,1022640,0,12.978822,,Whitefield,77.757259,ANKURAA DEVELOPERS,11-Nov-20,7502105,Ankuraa Lotus,,,,
478,1595,0,2,6614,3,3,390553,1,12.937506,1,Panathur,77.730754,Ecolife developers,17-Nov-20,10549330,Ecolife Elements of Nature,,,,
479,4046,0,,11226,6,4,5088,0,12.903643,,Dollar Scheme Colony,77.599417,Invictus Realty,19-Oct-20,45420396,Vaishnavi Terraces,Bannerghatta Road,4.94,2.888888889,4.222222222
480,1610,1-Mar-21,2,4549,3,3,1021171,1,12.915305,1,Varthur,77.720445,Adithi Projects,26-Oct-20,7325500,Adithi Emerald,Sarjapur Road,5,2.888888889,4.166666667
481,1408,0,3,4617,3,3,5998,,12.8788379,,Begur,77.6343759,,1-Sep-20,6500000,Prospect Silverton Apartments,Bommanahalli,4.41,1.555555556,3.822222222
482,1604,0,1,6546,3,3,254707,,12.74408,,Kanakpura Road,77.487743,,16-Oct-20,10500000,Dhammanagi Sumo Leaves,,,,
483,870,1-Mar-22,,5738,2,2,1045002,0,13.241621,,Ramamurthy Nagar,77.706913,StarGold Builders,9-Oct-20,4992930,Vaishnavi Vrishab,,,,
484,1420,1-Jul-23,,4750,,3,1044017,0,12.979446,,CV Raman Nagar,77.675175,AR Signature Builder,30-Sep-20,6745000,AR Sanjeeve Royale,,,,
485,1235,0,2,3886,2,2,818928,,13.0250726,,Horamavu,77.659665,,28-Oct-20,4800000,Prodaacon Mounika Espancia,,,,
486,861.76,0,,9513,,2,271835,0,12.939126,,Balagere,77.737663,ACREDALES,8-Nov-20,8200164,Sobha Dream Acres,,,,
487,1245,0,2,8032,2,2,11372,1,13.053146,1,Hebbal,77.57443,J.M. Consultants,19-Oct-20,9701040,Hiranandani Glen Gate,Hebbal,4.72,2.333333333,4.033333333
488,1212,0,2,6189,2,2,0,,12.9716,,Bannerghatta Road,77.59456,,19-Sep-20,7500000,Kristal Beryl,Lavelle Road,5,3,4.377777778
489,735,0,2,5170,2,2,0,,13.048041,,Sai Gargden Layout,77.607315,,14-Nov-20,3800000,Shree Renuka Residency,Hebbal,4.72,2.333333333,4.033333333
490,1343,0,0,8562,2,2,18206,,12.975841,,Rajaji Nagar,77.557095,,4-May-20,11500000,Purva Sunflower,,,,
491,1305,0,2,6500,2,3,372720,1,12.889904,1,Kudlu Gate,77.648958,sumo properties,5-Nov-20,8482500,Sumo Sonnet,Electronic City,4.31,1.777777778,4.011111111
492,1917,0,,5839,3,3,53762,0,12.893157,,Kasavanhalli,77.673761,JVRD Ventures,24-Oct-20,11193363,Frontier Heights,,,,
493,1590,0,,5950,3,3,374652,1,12.904199,1,Uttarahalli,77.538125,Roshan Enterprises,17-Nov-20,9460500,Roshan Gardenia,,,,
494,1404,0,2,5270,2,3,752785,1,12.915225,1,Sarjapur  Road,77.716197,Zippserv GroupBuy,6-Nov-20,7400000,CLPD Arcadia,,,,
495,1323,0,3,3999,2,2,1003445,1,13.031238,1,Horamavu,77.658385,ASN SHELTERS PRIVATE LIMITED,12-Nov-20,5290677,Nava Vaibhava,,,,
496,1199,1-Nov-20,,4516,,2,82056,0,13.018333,,NRI Layout,77.670294,Thanushka Infrastructure,5-Nov-20,5395800,Thanushka Sai Grand,,,,
497,914.4,0,,5578,2,2,1029739,1,13.04102,1,Horamavu,77.673812,Thanushka Infrastructure,1-Nov-20,5101034,Akshaj Spring Leaf,Banaswadi,4.9,1.555555556,4.144444444
498,1140,1-Jun-22,,4200,,2,1046221,0,12.855033,,Rajarajeshwari Nagar,77.615622,5 Elements Realty,11-Nov-20,4788000,Vasundra Cyber Nest,Bannerghatta Road,4.94,2.888888889,4.222222222
499,1962,0,4,6116,3,3,50600,,12.914815,,BTM 2nd Stage,77.622542,,20-Mar-20,12000000,Ansal Forte,,,,
500,1135,0,2,5463,2,2,758763,,13.023363,,KR Puram,77.717288,,31-Oct-20,6200000,MC Sarovar Annex,KR Puram,4.43,1.222222222,3.866666667
501,1234,1-Oct-25,1,10350,3,3,903171,1,13.021555,1,KR Puram,77.705723,Brickwicks,17-Nov-20,12344338,Assetz Sun and Sanctum,KR Puram,4.43,1.222222222,3.866666667
502,898,1-Oct-25,2,10350,2,2,903171,1,13.021555,1,KR Puram,77.705723,Brickwicks,17-Nov-20,9294300,Assetz Sun and Sanctum,KR Puram,4.43,1.222222222,3.866666667
503,641.64,1-Oct-24,,5922,2,2,1048815,1,13.094562,1,Kogilu,77.613811,Brickwicks,17-Nov-20,3800000,Adarsh Greens,,,,
504,420.44,1-Oct-24,,5827,1,1,1048815,1,13.094562,1,Kogilu,77.613811,Brickwicks,17-Nov-20,2450000,Adarsh Greens,,,,
505,1132,1-Sep-25,1,5150,2,2,1042031,1,13.0861557,1,Yelahanka New Town,77.5528449,Brickwicks,17-Nov-20,5830000,Arvind Bel Air,,,,
506,1626,1-Sep-25,1,5043,3,3,1042031,1,13.0861557,1,Yelahanka New Town,77.5528449,Brickwicks,17-Nov-20,8170650,Arvind Bel Air,,,,
507,1639,0,3,3999,2,3,1003445,1,13.031238,1,Horamavu,77.658385,ASN SHELTERS PRIVATE LIMITED,12-Nov-20,6554361,Nava Vaibhava,,,,
508,1250,1-Dec-21,,4000,,2,1027577,0,12.853447,,Bannerghatta Road,77.57398,5 Elements Realty,4-Nov-20,5000000,Sai Nandana Gp Pride,Bannerghatta Road,4.94,2.888888889,4.222222222
509,1225,1-Feb-21,,6000,2,2,1008149,1,12.889329,1,7th Phase JP Nagar,77.574378,5 Elements Realty,12-Nov-20,7350000,GR Green Line,JP Nagar,5,3,4.355555556
510,1326,1-Nov-20,,5500,,2,1017204,0,12.988115,,Mahadevpura,77.686725,SS Builders And Developers,12-Nov-20,7293000,SS Siri Nivas,,,,
511,1089,1-Dec-21,,6000,3,3,1046368,1,12.920233,1,Rajarajeshwari Nagar,77.512448,JLL,2-Nov-20,6300000,Elegant Exquisite,,,,
512,934,1-Dec-21,,5998,2,2,1046368,1,12.920233,1,Rajarajeshwari Nagar,77.512448,JLL,2-Nov-20,5238806,Elegant Exquisite,,,,
513,1997,1-Dec-21,1,9840,4,3,207215,1,13.016875,1,Kammanahalli,77.637275,JLL,2-Nov-20,19650480,Prestige North Point,,,,
514,1726,1-Dec-21,1,9775,2,2,207215,1,13.016875,1,Kammanahalli,77.637275,JLL,2-Nov-20,16730700,Prestige North Point,,,,
515,2307.09,0,,0,4,4,41046,1,12.920816,1,Hosakerehalli,77.536585,JLL,2-Nov-20,0,Tata The Promont,,,,
516,2522,0,1,11757,4,3,41046,1,12.920816,1,Hosakerehalli,77.536585,JLL,2-Nov-20,29653676,Tata The Promont,,,,
517,2130,1-Dec-23,2,22018,5,4,809715,1,12.95696,1,Basavangudi,77.568407,JLL,2-Nov-20,46900000,Concorde Luxepolis,,,,
518,1751,1-Dec-23,2,22964,4,3,809715,1,12.95696,1,Basavangudi,77.568407,JLL,2-Nov-20,40209964,Concorde Luxepolis,,,,
519,3900,0,,10400,,4,15748,0,13.056314,,Hebbal,77.595104,JLL,2-Nov-20,40560000,RMZ Latitude,,,,
520,1230,0,,9269,,2,406724,0,13.053021,,Hebbal,77.597271,JLL,12-Nov-20,11402100,Vaishnavi North 24,Hebbal,4.72,2.333333333,4.033333333
521,2018,0,,8382,,3,406724,0,13.053021,,Hebbal,77.597271,JLL,12-Nov-20,16916894,Vaishnavi North 24,Hebbal,4.72,2.333333333,4.033333333
522,1800,1-Mar-25,,5083,3,3,1004576,1,13.029659,1,Old Madras Road,77.723625,JLL,2-Nov-20,9149400,Concorde Auriga,KR Puram,4.43,1.222222222,3.866666667
523,1136,1-Mar-25,1,5405,2,2,1004576,1,13.029659,1,Old Madras Road,77.723625,JLL,2-Nov-20,6141216,Concorde Auriga,KR Puram,4.43,1.222222222,3.866666667
524,1618,1-Dec-22,,5083,3,3,267159,0,13.008684,,Whitefield,77.740575,JLL,2-Nov-20,8224294,Sekhar Alturas,,,,
525,2262,1-May-23,,6781,4,4,812564,0,13.024474,,Whitefield,77.762022,ENHANCE REALTORS,5-Nov-20,15000000,Assetz Marq 2,Whitefield,4.96,2.888888889,4.2
526,890,1-Apr-21,,3500,2,2,21120,0,12.790251,,Hennagara,77.675535,Vistar Builders and Developers,10-Nov-20,3115000,Fortune,,,,
527,680,1-Apr-21,,3500,1,1,21120,1,12.790251,1,Hennagara,77.675535,Vistar Builders and Developers,11-Nov-20,2380000,Fortune,,,,
528,1230,0,,6500,,2,372720,0,12.889904,,Kudlu Gate,77.648958,sumo properties,5-Nov-20,7995000,Sumo Sonnet,Electronic City,4.31,1.777777778,4.011111111
529,1224,1-Dec-23,1,5228,2,3,1028407,1,13.142556,,Bagalur,77.6820817,Corazon Homes,17-Nov-20,5385600,Prestige Finsbury Park,,,,
530,1443,1-Mar-24,,7544,,2,877123,0,13.0646421,,Thanisandra Main Road,77.631539,Corazon Homes,17-Nov-20,10885992,Atmosphere,,,,
531,1200,1-Apr-21,,6250,2,2,874084,0,13.146106,,Hosahalli,77.638927,Corazon Homes,17-Nov-20,7500000,Zenium,International Airport,0.8,2.111111111,2.533333333
532,1482,0,1,8434,2,3,127153,1,13.061846,1,Hennur Road,77.661598,Corazon Homes,4-Nov-20,12029394,Palm Beach,Hennur,4.72,1.555555556,3.8
533,1775,1-Dec-23,,7436,,3,1046174,0,12.981981,,Whitefield,77.742182,Corazon Homes,31-Oct-20,13200000,Prestige Waterford,,,,
534,875,1-Dec-20,1,15542,2,2,40828,1,12.965269,1,Binny Pete,77.559245,Corazon Homes,17-Nov-20,13600000,Shapoorji Pallonji Parkwest,,,,
535,782,1-Oct-25,1,11026,2,2,903171,1,13.021555,,KR Puram,77.705723,Corazon Homes,31-Oct-20,8093700,Assetz Sun and Sanctum,KR Puram,4.43,1.222222222,3.866666667
536,1232,0,1,8116,2,2,127153,1,13.061846,1,Hennur Road,77.661598,Corazon Homes,31-Oct-20,10000000,Palm Beach,Hennur,4.72,1.555555556,3.8
537,1560,1-May-21,1,6346,3,3,340979,1,13.104132,1,Kogilu,77.606297,Corazon Homes,17-Nov-20,9900000,Sobha Palm Court,Yelahanka,1.5,1,3.2
538,1435,0,,5105,,3,1045931,0,13.028038,,NRI Layout,77.682894,Lakven Brindavanam,19-Sep-20,5854800,Lakven Brindavanam,Rammurthy Nagar,4.54,1.444444444,3.722222222
539,1595,1-Feb-21,,6000,3,3,1008149,1,12.889329,1,7th Phase JP Nagar,77.574378,5 Elements Realty,4-Nov-20,9410500,GR Green Line,JP Nagar,5,3,4.355555556
540,1950,0,2,12563,3,3,14795,,12.981156,,Gopalapura,77.563442,,5-Jun-20,24500000,Sobha Indraprastha,,,,
541,2001,1-Nov-20,4,10718,3,3,1022231,1,12.9269735,1,Jayanagar,77.57663,Doddala Developers,23-Oct-20,21446718,Varahi Royal,Jayanagar,5,2.444444444,4.366666667
542,1800,0,2,8222,3,3,48034,,12.9315582,,Kaikondrahalli,77.6941493,SH Dealers,7-Nov-20,14200000,Prestige Sunnyside,,,,
543,865,0,2,3930,2,2,1003683,,12.92307,,Kengeri Satellite Town,77.4846,,1-Nov-20,3400000,Radiant Enclave Kengeri Satellite Town,Kengeri,4.71,1.666666667,3.922222222
544,1991,1-Nov-21,2,8700,4,3,10920,1,13.035956,1,Hebbal,77.598194,Times Estates,2-Nov-20,16696526,Prestige Misty Waters Vista Tower,RT Nagar,4.72,2.333333333,4.033333333
545,1591,0,1,7856,3,3,45578,1,12.885679,1,Kanakpura Road,77.563774,Times Estates,2-Nov-20,10720158,Prestige Falcon City,,,,
546,1929,1-Dec-20,2,5926,5,3,335349,1,12.863435,1,Begur Road,77.610122,Times Estates,2-Nov-20,10850625,Prestige Song of the South,Bannerghatta Road,4.94,2.888888889,4.222222222
547,1893,0,2,6603,3,3,6068,,12.878965,,Kanakpura Road,77.52978,,19-May-20,12500000,Sobha Forest View,,,,
548,1110,0,1,5200,2,2,498261,1,12.895808,1,Sarjapur,77.702011,Vistaar Media Communications,4-Nov-20,5772000,Hilife Rio,,,,
549,1255,1-Feb-21,,4050,2,2,1009094,0,12.926485,,Varthur,77.729278,Keystone Projects,30-Oct-20,5082750,Keystone DSR Riviera,,,,
550,2279,0,,8889,4,4,812564,1,13.024474,1,Whitefield,77.762022,Search Homes India Pvt Ltd,5-Nov-20,12662124,Assetz Marq 2,Whitefield,4.96,2.888888889,4.2
551,1662.71,1-Mar-24,3,8477,3,3,502477,1,13.046529,1,Nagavara,77.615733,Search Homes India Pvt Ltd,28-Oct-20,14095588,Karle Vario Homes,,,,
552,1168.12,1-Mar-24,2,8499,2,2,502477,1,13.046529,1,Nagavara,77.615733,Search Homes India Pvt Ltd,28-Oct-20,9928000,Karle Vario Homes,,,,
553,1234,1-Oct-25,1,10650,3,3,903171,1,13.021555,1,KR Puram,77.705723,Search Homes India Pvt Ltd,28-Oct-20,12344338,Assetz Sun and Sanctum,KR Puram,4.43,1.222222222,3.866666667
554,898,1-Oct-25,2,11026,2,2,903171,1,13.021555,1,KR Puram,77.705723,Search Homes India Pvt Ltd,28-Oct-20,9294300,Assetz Sun and Sanctum,KR Puram,4.43,1.222222222,3.866666667
555,1300,0,1,6924,2,2,0,,12.914765,,BTM 2nd Stage,77.612479,,10-Jul-20,9000000,On request,BTM,5,2.333333333,4.133333333
556,1917,0,3,7042,4,3,12792,,13.085289,,Thanisandra,77.644601,,4-Nov-20,13500000,Bhartiya City Nikoo Homes,Jakkur,4.14,1.555555556,3.844444444
557,1500,0,4,10666,2,3,235907,,12.947612,,Wilson Garden,77.598491,,13-Nov-20,16000000,Sara Rose,,,,
558,1810,0,2,8781,3,3,11372,1,13.053146,1,Hebbal,77.57443,J.M. Consultants,19-Oct-20,15893610,Hiranandani Glen Gate,Hebbal,4.72,2.333333333,4.033333333
559,1525,1-Jun-22,,4200,,3,1046221,0,12.855033,,Rajarajeshwari Nagar,77.615622,5 Elements Realty,11-Nov-20,6405000,Vasundra Cyber Nest,Bannerghatta Road,4.94,2.888888889,4.222222222
560,1345,0,2,3271,2,2,0,,12.9897585,,Herohalli,77.482796,,1-Nov-20,4400000,DS max silver bell,Magadi Road,3.3,1.111111111,3.755555556
561,1927,1-Dec-21,,7542,,3,38880,0,12.928893,,Bellandur,77.681636,Pin Click Property Management Pvt Ltd,20-Oct-20,14533434,Sterling Ascentia,,,,
562,808.38,1-Mar-25,,9787,,3,1044107,0,12.869575,,Begur,77.634331,ACREDALES,12-Nov-20,7029600,Canvas and Cove,Electronic City,4.41,1.555555556,3.822222222
563,682.33,1-Mar-25,,9261,,2,1044107,0,12.869575,,Begur,77.634331,ACREDALES,12-Nov-20,6316684,Canvas and Cove,Electronic City,4.41,1.555555556,3.822222222
564,1555,1-Jun-24,1,5900,2,2,903088,1,12.907028,1,Sarjapur  Road,77.699945,Shibani,12-Nov-20,9174500,Mana Uber Verdant 2,Sarjapur Road,5,2.888888889,4.166666667
565,1380,1-Dec-21,1,5868,2,2,498983,1,13.027908,1,Whitefield,77.751122,Coldwell Banker Brad Realty,8-Nov-20,8038620,Sumadhura Eden Garden,Whitefield,4.96,2.888888889,4.2
566,1609,0,1,6755,3,3,812564,1,13.024474,1,Whitefield,77.762022,Coldwell Banker Brad Realty,5-Nov-20,10809262,Assetz Marq 2,Whitefield,4.96,2.888888889,4.2
567,861.76,0,,9699,,2,271835,0,12.939126,,Balagere,77.737663,Coldwell Banker Brad Realty,4-Nov-20,8200164,Sobha Dream Acres,,,,
568,1427,1-Mar-21,2,3900,2,3,1044392,1,12.862747,1,8th Phase JP Nagar,77.575439,BMR Builders & Developers,24-Oct-20,5565300,Bhoomika Sunrise,,,,
569,2536,0,,9848,4,3,5088,1,12.903643,1,Dollar Scheme Colony,77.599417,Invictus Realty,19-Oct-20,24974528,Vaishnavi Terraces,Bannerghatta Road,4.94,2.888888889,4.222222222
570,1063,0,1,5174,1,2,399731,,13.013558,,1st Block HRBR Layout,77.6477,,17-Nov-20,5500000,Sai Charandeep,,,,
571,615,1-Jan-23,,4999,,1,1013712,0,12.968793,,Whitefield,77.735634,ASN SHELTERS PRIVATE LIMITED,11-Nov-20,3074385,ASN Srikaram,,,,
572,2050,1-Jan-23,,4999,,3,1013712,0,12.968793,,Whitefield,77.735634,ASN SHELTERS PRIVATE LIMITED,11-Nov-20,10247950,ASN Srikaram,,,,
573,1645,1-Dec-23,2,7350,3,3,905011,1,12.911607,1,Ambalipura,77.668035,CHENNAI GATED COMMUNITY,6-Nov-20,12090750,Godrej Lake Gardens,,,,
574,1185,1-Mar-21,1,4463,2,2,1021171,1,12.915305,1,Varthur,77.720445,Adithi Projects,17-Nov-20,5423408,Adithi Emerald,Sarjapur Road,5,2.888888889,4.166666667
575,969,1-Jan-21,,5883,3,3,1049334,0,12.87083,,8th Phase JP Nagar,77.580946,INA DEVELOPERS,24-Oct-20,5700627,Ina Sairam,,,,
576,861,1-Jan-21,,6070,,2,1049334,0,12.87083,,8th Phase JP Nagar,77.580946,INA DEVELOPERS,24-Oct-20,5500068,Ina Sairam,,,,
577,1467,1-Mar-21,,6555,,3,900688,0,13.061618,,Thanisandra,77.621583,Creative and Vikas Builders,12-Nov-20,9845037,Creative Shree Vikas,Nagawara,4.86,2.333333333,4.066666667
578,1550,1-Dec-21,,4000,,3,1027577,0,12.853447,,Bannerghatta Road,77.57398,5 Elements Realty,4-Nov-20,6200000,Sai Nandana Gp Pride,Bannerghatta Road,4.94,2.888888889,4.222222222
579,1786,1-Dec-20,3,7999,3,3,1009238,1,13.006362,1,Kasturi Nagar,77.656127,NAVA JYOTHI SHELTERS PVT.LTD,15-Nov-20,14286214,Nava Subha Samruddhi,,,,
580,1600,1-May-23,,7154,3,3,776473,0,13.019081,,KR Puram,77.724265,CHENNAI GATED COMMUNITY,30-Oct-20,8700800,Sobha Lake Gardens,,,,
581,1314.12,1-May-23,1,7153,2,2,776473,1,13.019081,1,KR Puram,77.724265,CHENNAI GATED COMMUNITY,30-Oct-20,7099542,Sobha Lake Gardens,,,,
582,1433,0,2,7117,2,3,83460,1,13.042865,1,Jalahalli,77.520133,VAISHNAVI INFRASTRUCTURE PVT LTD,28-Oct-20,10200000,Vaishnavi Gardenia,Jalahalli,4.2,1.444444444,3.922222222
583,1437,1-Dec-22,,5145,2,2,267159,0,13.008684,,Whitefield,77.740575,JLL,2-Nov-20,7393365,Sekhar Alturas,,,,
584,1906,1-May-23,,6808,3,3,812564,0,13.024474,,Whitefield,77.762022,ENHANCE REALTORS,5-Nov-20,12700000,Assetz Marq 2,Whitefield,4.96,2.888888889,4.2
585,1390,0,3,4000,3,3,490637,1,12.957215,1,Whitefield,77.772979,Likhit Reddy,24-Oct-20,5560000,Bhuvana Nivaath,Whitefield,4.96,2.888888889,4.2
586,1185,0,1,5636,2,2,555105,1,13.037441,1,Whitefield,77.752348,SLV Infrastructures,23-Oct-20,6500000,SLV Central Park,Whitefield,4.43,1.222222222,3.866666667
587,1140,0,,5000,2,2,1008477,0,12.887861,,Kanakpura Road,77.542902,JLL,2-Nov-20,5700000,Elegant Altima,,,,
588,1667,0,,4990,3,3,1008477,0,12.887861,,Kanakpura Road,77.542902,JLL,2-Nov-20,8318330,Elegant Altima,,,,
589,719,0,,6258,1,1,405800,0,13.06526,,Budigere,77.740464,Corazon Homes,17-Nov-20,4500000,Brigade Buena Vista,Bommanahalli,4.41,1.555555556,3.822222222
590,1407,0,2,5472,2,3,94206,1,12.887067,1,Mysore Road,77.453708,Corazon Homes,8-Nov-20,7580000,Brigade Panorama,,,,
591,1395,1-Dec-22,,5949,3,3,819191,0,12.849864,,Electronic City,77.679716,Corazon Homes,31-Oct-20,8300000,Ajmera Nucleus,,,,
592,1485,0,2,4782,2,3,195907,,13.093034,,Jakkur,77.618901,Meenakshi Estates,20-Aug-20,7100000,Adis North Lake,Yelahanka,1.5,1,3.2
593,1400,1-May-21,1,4279,2,3,0,,12.9057861,,Uttarahalli,77.5426389,,22-Aug-20,5990000,Vaishnavi Dews,,,,
594,1450,1-May-21,,6600,2,2,340979,0,13.104132,,Kogilu,77.606297,SAURABH KUMAR,12-Nov-20,9570000,Sobha Palm Court,Yelahanka,1.5,1,3.2
595,1950,1-May-21,1,6600,4,3,340979,1,13.104132,1,Kogilu,77.606297,SAURABH KUMAR,12-Nov-20,12870000,Sobha Palm Court,Yelahanka,1.5,1,3.2
596,4961,0,,8775,4,4,11022,0,13.04959,,Thanisandra,77.625772,SAURABH KUMAR,12-Nov-20,43532775,G Corp The Icon,,,,
597,1740,0,,8775,3,3,11022,0,13.04959,,Thanisandra,77.625772,SAURABH KUMAR,12-Nov-20,15268500,G Corp The Icon,,,,
598,1819,0,2,3900,3,3,198393,0,12.844396,,Electronic City Phase II,77.679637,Rachana Developers,6-Nov-20,7094100,Rachana E Golden Abode,Electronic City,4.31,1.777777778,4.011111111
599,2000,0,2,7500,3,3,807205,,12.96085,,Marathahalli,77.69469,,14-Oct-20,15000000,Prestige Sunnyside Oak,Marathahalli,4.88,2.333333333,4.277777778
600,2538,0,2,7250,5,3,37462,1,12.93066,1,Whitefield,77.737881,Times Estates,2-Nov-20,18400500,Prestige Lakeside Habitat,,,,
601,1907,0,,6792,3,3,812564,1,13.024474,1,Whitefield,77.762022,Search Homes India Pvt Ltd,5-Nov-20,10931546,Assetz Marq 2,Whitefield,4.96,2.888888889,4.2
602,1277,0,,3900,,2,198393,0,12.844396,,Electronic City Phase II,77.679637,Rachana Developers,6-Nov-20,4980300,Rachana E Golden Abode,Electronic City,4.31,1.777777778,4.011111111
603,2399,0,1,7504,3,4,0,,13.045073,,Manyata Tech Park,77.622006,,17-Nov-20,17600000,Prestige misty waters,Nagawara,4.86,2.333333333,4.066666667
604,2411,0,2,6900,5,3,5106,1,12.982398,1,Pattandur Agrahara,77.739087,Bhavesh Kothari - Property First,28-Oct-20,16635900,Prestige Silver Oak,,,,
605,1173,1-Jul-21,,4350,,3,1034987,0,13.014971,,Seegehalli,77.723596,Sree Adithya Developers,5-Nov-20,5102550,Sree Adithya Elegant,KR Puram,4.43,1.222222222,3.866666667
606,1991,0,2,5440,4,3,136755,1,13.064042,1,Budigere,77.743404,Times Estates,2-Nov-20,10247677,Prestige Tranquility,,,,
607,630,0,2,4762,2,2,461771,,12.850508,,Doddathoguru,77.646667,,9-Jun-20,2999999,Sai Karthika Apartment,,,,
608,1181,0,,5747,2,2,53762,0,12.893157,,Kasavanhalli,77.673761,JVRD Ventures,24-Oct-20,6787207,Frontier Heights,,,,
609,1185,0,1,5508,2,2,555105,1,13.037441,1,Whitefield,77.752348,Momu Ventures Pvt Ld,23-Oct-20,6500000,SLV Central Park,Whitefield,4.43,1.222222222,3.866666667
610,1600,1-Dec-20,2,4979,3,3,32762,1,12.944232,1,Varthur,77.751769,Search Homes India Pvt Ltd,31-Oct-20,7966400,Grandeur Park,"Varthur Main Road, Whitefield",3.37,1.444444444,3.644444444
611,1523,1-Dec-21,1,5796,3,3,498983,1,13.027908,1,Whitefield,77.751122,Coldwell Banker Brad Realty,8-Nov-20,8824977,Sumadhura Eden Garden,Whitefield,4.96,2.888888889,4.2
612,1906,1-May-23,,6808,3,3,812564,0,13.024474,,Whitefield,77.762022,Coldwell Banker Brad Realty,5-Nov-20,12700000,Assetz Marq 2,Whitefield,4.96,2.888888889,4.2
613,658.965958,0,,9316,,1,271835,0,12.939126,,Balagere,77.737663,Coldwell Banker Brad Realty,4-Nov-20,6139244,Sobha Dream Acres,,,,
614,1538,1-Jul-23,1,5730,3,3,808813,0,12.934481,1,Whitefield,77.743907,Corazon Homes,31-Oct-20,8814000,Brigade Cornerstone Utopia,,,,
615,1575,1-Jan-24,,6095,3,3,793276,1,13.086137,1,Thanisandra,77.634758,Corazon Homes,31-Oct-20,9600000,Orchid Piccadilly,Jakkur,1.5,1,3.2
616,1371,1-Jan-24,,6189,2,2,793276,1,13.086137,1,Thanisandra,77.634758,Corazon Homes,31-Oct-20,8500000,Orchid Piccadilly,Jakkur,1.5,1,3.2
617,1130,0,1,4788,2,2,195907,,13.093034,,Jakkur,77.618901,Meenakshi Estates,20-Aug-20,5410000,Adis North Lake,Yelahanka,1.5,1,3.2
618,687,1-Dec-21,,5731,,1,793503,0,13.100389,,Kogilu,77.632053,DIVINUS INDIA PRIVATE LIMITED,2-Nov-20,3937884,Brigade Bricklane,,,,
619,1022,1-Dec-21,,5731,,2,793503,0,13.100389,,Kogilu,77.632053,DIVINUS INDIA PRIVATE LIMITED,2-Nov-20,5858104,Brigade Bricklane,,,,
620,1412,1-Jun-22,,3900,2,2,1027559,0,12.876832,,Ittangur,77.787586,Arijit Estates,6-Nov-20,5506800,Sowparnika Pragati,Sarjapur Road,5,2.888888889,4.166666667
621,1882,1-Jun-22,,3900,3,3,1027559,0,12.876832,,Ittangur,77.787586,Arijit Estates,6-Nov-20,7339800,Sowparnika Pragati,Sarjapur Road,5,2.888888889,4.166666667
622,1209,0,1,6618,2,3,501465,,12.901673,,Yelachenahalli,77.569561,Aslam,28-Sep-20,8000000,jahanavi Manahattan,,,,
623,894,1-Mar-21,,6711,,2,900688,0,13.061618,,Thanisandra,77.621583,Creative and Vikas Builders,12-Nov-20,6000000,Creative Shree Vikas,Nagawara,4.86,2.333333333,4.066666667
624,1210,0,1,2800,2,3,449363,1,12.786364,1,Attibele,77.776764,Omshri Infrastructures,10-Nov-20,3388000,Omshri Opulence,Bommasandra,4.97,2.555555556,4.122222222
625,1109,1-Jun-23,1,7304,2,2,498987,1,12.873249,1,Bannerghatta Road,77.594002,Aradhya Mansions Pvt Ltd,6-Nov-20,8100000,Prestige Elysian,,,,
626,1234,1-Oct-25,1,10697,3,3,903171,1,13.021555,1,KR Puram,77.705723,Aradhya Mansions Pvt Ltd,6-Nov-20,12344338,Assetz Sun and Sanctum,KR Puram,4.43,1.222222222,3.866666667
627,898,1-Oct-25,2,10859,2,2,903171,1,13.021555,1,KR Puram,77.705723,Aradhya Mansions Pvt Ltd,6-Nov-20,9294300,Assetz Sun and Sanctum,KR Puram,4.43,1.222222222,3.866666667
628,2944,0,,9467,3,3,7350,0,13.047304,,Hebbal,77.616163,New Door Ventures Pvt. Ltd.,5-Nov-20,27526400,Karle Zenith Residences,,,,
629,7540,0,,9400,4,4,7350,0,13.047304,,Hebbal,77.616163,New Door Ventures Pvt. Ltd.,5-Nov-20,70876000,Karle Zenith Residences,,,,
630,1662.71,1-Mar-24,3,8477,3,3,502477,1,13.046529,1,Nagavara,77.615733,New Door Ventures Pvt. Ltd.,5-Nov-20,14095588,Karle Vario Homes,,,,
631,1168.12,1-Mar-24,2,8499,2,2,502477,1,13.046529,1,Nagavara,77.615733,New Door Ventures Pvt. Ltd.,5-Nov-20,9928000,Karle Vario Homes,,,,
632,1610,1-Sep-21,,2800,3,3,1045982,1,12.833746,1,Kammasandra,77.687673,Habulus Homes Pvt Ltd,2-Nov-20,4508000,Habulus Elite 2,,,,
633,461,1-Feb-24,1,11408,1,1,809230,1,13.09837,,Thanisandra,77.641657,New Door Ventures Pvt. Ltd.,20-Oct-20,5000006,Sobha Dream Gardens,,,,
634,1800,1-Apr-21,1,6250,3,3,874084,0,13.146106,,Hosahalli,77.638927,New Door Ventures Pvt. Ltd.,20-Oct-20,9891000,Zenium,International Airport,0.8,2.111111111,2.533333333
635,1962,0,,8117,3,3,127153,1,13.061846,,Hennur Road,77.661598,New Door Ventures Pvt. Ltd.,23-Oct-20,15571010,Palm Beach,Hennur,4.72,1.555555556,3.8
636,1346,0,,8116,2,2,127153,0,13.061846,,Hennur Road,77.661598,New Door Ventures Pvt. Ltd.,23-Oct-20,10925482,Palm Beach,Hennur,4.72,1.555555556,3.8
637,1468,0,0,10559,2,2,1005551,,13.1185614,,Yelahanka,77.5974617,ASSET INDIA REAL ESTATE PRIVATE LIMITED,15-Nov-20,15000000,Rmz Galleria,Yelahanka,1.5,1,3.2
638,1684,0,1,4449,2,3,63200,1,13.020145,1,KR Puram,77.716315,JLL,2-Nov-20,7492116,TGR Ankshu Ecstasy,,,,
639,1480,0,2,5275,3,3,17826,,13.039456,,Hennur Road,77.637084,,17-Nov-20,7800000,VRR Stone Arch,,,,
640,2634,1-Jun-22,,4600,,4,760721,0,13.203303,,Devanahalli,77.663575,Invictus Realty,20-Oct-20,12116400,Ozone Urbana Prime,International Airport,0.8,2.111111111,2.533333333
641,1040,1-Jun-22,,4691,2,2,760721,0,13.203303,,Devanahalli,77.663575,Invictus Realty,20-Oct-20,4878640,Ozone Urbana Prime,International Airport,0.8,2.111111111,2.533333333
642,1597,0,2,6262,3,3,0,,12.901774,,Kanakpura Road,77.55325,,17-Nov-20,10000000,on request,Kumaraswamy Layout,4.78,2,4
643,1500,1-Aug-21,1,6000,2,3,465643,,12.822882,,Electronic City,77.661145,,12-Nov-20,9000000,GM Global Techies Town,,,,
644,2624,1-Jun-24,,5900,3,3,903088,0,12.907028,,Sarjapur  Road,77.699945,Shibani,12-Nov-20,15481600,Mana Uber Verdant 2,Sarjapur Road,5,2.888888889,4.166666667
645,1320,0,1,3600,2,3,0,,12.846279,,Gopasandra,77.742972,,7-Nov-20,4700000,Sai Ram Resedency,,,,
646,1200,0,2,3750,2,2,14380,,12.859678,,Electronic City,77.647039,,14-Sep-20,4500000,Elite Greenwoods,,,,
647,1455,0,2,5154,2,3,1001763,,12.9248711,,Banashankari Stage III,77.5662406,,13-Aug-20,7500000,Kiran Comforts,,,,
648,1800,0,3,7777,3,3,0,,12.90824,,Sector 2 HSR Layout,77.646682,Individual Consultant,29-Nov-19,14000000,shobha daffodil,,,,
649,1260,1-Dec-20,2,4979,2,2,32762,1,12.944232,1,Varthur,77.751769,Search Homes India Pvt Ltd,31-Oct-20,6273540,Grandeur Park,"Varthur Main Road, Whitefield",3.37,1.444444444,3.644444444
650,636.899963,1-Dec-20,1,10791,2,2,786346,1,12.902039,1,Sarjapur,77.702039,Corazon Homes,31-Oct-20,6873000,Brigade Parkside East,,,,
651,2277,0,,5900,3,3,254913,0,13.104628,,Yelahanka New Town,77.571082,Essar Property Management,10-Nov-20,13434300,Inland Edilon,,,,
652,1180,0,1,7200,2,2,375968,1,13.070845,1,Hennur Road,77.656923,Essar Property Management,10-Nov-20,7810000,Orchid Greens,,,,
653,1271,1-Apr-21,,6606,3,3,11582,0,13.096476,,Hennur Road,77.647831,Essar Property Management,10-Nov-20,6977475,Kolte Patil Raaga,,,,
654,1078,1-Apr-21,,6000,2,2,11582,0,13.096476,,Hennur Road,77.647831,Essar Property Management,10-Nov-20,6468000,Kolte Patil Raaga,,,,
655,461,1-Dec-21,1,11925,1,1,809230,1,13.09837,,Thanisandra,77.641657,Essar Property Management,10-Nov-20,5482673,Sobha Dream Gardens,,,,
656,655,1-Dec-21,,11005,,2,809230,0,13.09837,,Thanisandra,77.641657,Essar Property Management,10-Nov-20,7208275,Sobha Dream Gardens,,,,
657,1309,0,,9658,,2,406724,0,13.053021,,Hebbal,77.597271,Essar Property Management,12-Nov-20,12642322,Vaishnavi North 24,Hebbal,4.72,2.333333333,4.033333333
658,2018,0,,8472,,3,406724,0,13.053021,,Hebbal,77.597271,Essar Property Management,12-Nov-20,16916894,Vaishnavi North 24,Hebbal,4.72,2.333333333,4.033333333
659,687,1-Dec-21,,5732,,1,793503,0,13.100389,,Kogilu,77.632053,Essar Property Management,10-Nov-20,3937884,Brigade Bricklane,,,,
660,1022,1-Dec-21,,5732,,2,793503,0,13.100389,,Kogilu,77.632053,Essar Property Management,10-Nov-20,5858104,Brigade Bricklane,,,,
661,1375,0,2,6181,2,2,13194,,12.8641382,,Hulimavu,77.596398,,17-Nov-20,8500000,Raja Aristos,,,,
662,1075,0,1,5024,2,2,0,,13.00071,,Kadugodi,77.72664,,13-Nov-20,5000000,Sai Ganesh Apartment,KR Puram,4.96,2.888888889,4.2
663,1467,0,2,8180,3,3,0,,12.978136,,Prashanth Nagar,77.53206,,21-Oct-20,12000000,ROYALE NEST,,,,
664,2502,0,4,6995,5,4,0,,13.065937,,Manyata Tech Park,77.624,Dolphin House Property Management,29-Sep-20,17500000,Sansidh galaxy,,,,
665,1326,0,,3400,3,3,1031060,1,13.025521,,Babusapalaya,77.651971,SR Group,17-Nov-20,4508400,Sri Balaji Elite 2,Kalyan Nagar,5,2.444444444,4.188888889
666,1530,0,,4900,3,3,374924,1,12.862659,1,Bannerghatta Road,77.602957,Hi Living Homes,2-Nov-20,7497000,Arna Meadows,,,,
667,1260,0,2,4900,2,2,374924,1,12.862659,1,Bannerghatta Road,77.602957,Hi Living Homes,2-Nov-20,6174000,Arna Meadows,,,,
668,1132,1-Sep-25,1,5256,2,2,1042031,1,13.0861557,1,Yelahanka New Town,77.5528449,Suraj Realtors,29-Oct-20,5830000,Arvind Bel Air,,,,
669,1626,1-Sep-25,1,5051,3,3,1042031,1,13.0861557,1,Yelahanka New Town,77.5528449,Suraj Realtors,29-Oct-20,8170650,Arvind Bel Air,,,,
670,420.44,1-Oct-24,,6064,1,1,1048815,1,13.094562,1,Kogilu,77.613811,Suraj Realtors,29-Oct-20,2450000,Adarsh Greens,,,,
671,4561,0,2,7192,3,3,14940,1,12.896005,1,Sarjapur  Road,77.677736,Next gen floor,24-Oct-20,32802712,Klassik Landmark,,,,
672,1389,1-Jan-23,,4999,,2,1013712,0,12.968793,,Whitefield,77.735634,ASN SHELTERS PRIVATE LIMITED,11-Nov-20,6943611,ASN Srikaram,,,,
673,1745,1-Jul-20,2,6750,3,3,804670,1,12.901263,1,HSR Layout,77.651934,SNR SQUARE PRIVATE LIMITED,13-Aug-20,11778750,SNR Mayfair,HSR,5,2.222222222,4.155555556
674,1369,1-Dec-20,,7999,2,2,1009238,1,13.006362,1,Kasturi Nagar,77.656127,NAVA JYOTHI SHELTERS PVT.LTD,15-Nov-20,10950631,Nava Subha Samruddhi,,,,
675,1045,0,2,7548,2,2,83460,1,13.042865,1,Jalahalli,77.520133,VAISHNAVI INFRASTRUCTURE PVT LTD,28-Oct-20,7888000,Vaishnavi Gardenia,Jalahalli,4.2,1.444444444,3.922222222
676,1600,1-Jul-21,,5521,2,2,752994,1,13.1207272,1,Yelahanka,77.6058185,Adithya Developers,17-Nov-20,8720000,Adithya Tranquil,,,,
677,2556,1-Sep-21,,3999,,3,860680,0,13.064902,,Whitefield,77.794908,UNIQUE CONSTRUCTION,18-Oct-20,10783764,Unique Feronia,,,,
678,1647,0,2,5582,3,3,502993,1,12.917197,1,Sarjapur  Road,77.717088,DSR Infrastructure Pvt Ltd,12-Nov-20,9193554,DSR White Waters Phase 2,Sarjapur Road,5,2.888888889,4.166666667
679,1255,0,2,5513,2,2,418617,1,13.045209,1,Horamavu,77.679458,DSR Infrastructure Pvt Ltd,12-Nov-20,6918815,DSR Waterscape,,,,
680,1755,0,,5513,3,3,418617,1,13.045209,1,Horamavu,77.679458,DSR Infrastructure Pvt Ltd,12-Nov-20,9675315,DSR Waterscape,,,,
681,1453,0,,5656,2,2,158246,0,12.991137,,Whitefield,77.722533,DSR Infrastructure Pvt Ltd,12-Nov-20,8218168,DSR Lotus Towers,Whitefield,4.96,2.888888889,4.2
682,1809,1-Oct-23,1,5910,3,3,1011078,1,12.915081,,Sarjapur  Road,77.710237,DSR Infrastructure Pvt Ltd,11-Nov-20,10691190,DSR Parkway,,,,
683,1310,1-Oct-23,1,5910,2,2,1011078,1,12.915081,,Sarjapur  Road,77.710237,DSR Infrastructure Pvt Ltd,11-Nov-20,7742100,DSR Parkway,,,,
684,1583,1-Dec-20,1,7706,3,3,335349,1,12.863435,1,Begur Road,77.610122,Bricktip,7-Nov-20,8904375,Prestige Song of the South,Bannerghatta Road,4.94,2.888888889,4.222222222
685,1874,1-Aug-21,,10352,3,3,348923,1,12.921044,1,Bellandur,77.670637,Bricktip,7-Nov-20,19400000,The Central Regency Address,,,,
686,1698.112864,0,,14952,3,3,169570,0,12.886317,,Bannerghatta,77.597673,Bricktip,7-Nov-20,25390194,Mahindra Lifespace Windchimes,,,,
687,1342,1-Jun-23,1,7242,2,3,498987,1,12.873249,1,Bannerghatta Road,77.594002,Bricktip,7-Nov-20,9720000,Prestige Elysian,,,,
688,1443,1-Mar-24,,8160,,2,877123,0,13.0646421,,Thanisandra Main Road,77.631539,Bricktip,7-Nov-20,10885992,Atmosphere,,,,
689,1650,0,1,10000,4,3,37462,1,12.93066,1,Whitefield,77.737881,Bricktip,7-Nov-20,16500000,Prestige Lakeside Habitat,,,,
690,1703.93,0,,7694,,3,99191,0,12.864248,,Kanakpura Road,77.536795,Bricktip,7-Nov-20,13107991,Sobha Arena,,,,
691,1379,0,1,8305,2,2,45578,1,12.885679,1,Kanakpura Road,77.563774,Bricktip,7-Nov-20,11345033,Prestige Falcon City,,,,
692,1785,1-Jan-23,,5475,3,3,1011107,1,13.106622,1,Yelahanka,77.581395,DSR Infrastructure Pvt Ltd,21-Oct-20,9772875,DSR RR Avenues,,,,
693,1592,1-Jul-21,,4975,,3,1050393,0,12.967485,,Nagarbhavi,77.51174,SAHASRU PROPERTIES,12-Nov-20,7920200,Kundur Ullal Apartments,Nagarbhavi,4.53,2,4.1
694,1367,1-Jul-21,,4975,,2,1050393,0,12.967485,,Nagarbhavi,77.51174,SAHASRU PROPERTIES,17-Nov-20,6800825,Kundur Ullal Apartments,Nagarbhavi,4.53,2,4.1
695,1562,1-Dec-23,2,5345,3,3,1028407,1,13.142556,,Bagalur,77.6820817,Coldwell Banker Brad Realty,11-Nov-20,6872800,Prestige Finsbury Park,,,,
696,999,1-Dec-23,2,5345,2,2,1028407,1,13.142556,,Bagalur,77.6820817,Coldwell Banker Brad Realty,11-Nov-20,4395600,Prestige Finsbury Park,,,,
697,646,1-Dec-23,1,5345,1,1,1028407,1,13.142556,,Bagalur,77.6820817,Coldwell Banker Brad Realty,11-Nov-20,3452870,Prestige Finsbury Park,,,,
698,799,1-Jun-23,1,6881,1,1,808813,0,12.934481,1,Whitefield,77.743907,Coldwell Banker Brad Realty,11-Nov-20,4291429,Brigade Cornerstone Utopia,,,,
699,1905,1-Jun-23,1,7075,3,3,808813,0,12.934481,1,Whitefield,77.743907,Coldwell Banker Brad Realty,11-Nov-20,10342245,Brigade Cornerstone Utopia,,,,
700,1242,1-Jun-23,1,6610,2,2,808813,0,12.934481,1,Whitefield,77.743907,Coldwell Banker Brad Realty,11-Nov-20,6849630,Brigade Cornerstone Utopia,,,,
701,1000,0,0,8700,2,2,305697,,13.006835,,Malleshwaram,77.56368,ASSET INDIA REAL ESTATE PRIVATE LIMITED,15-Nov-20,8700000,Venkatalakshmi Apartments,,,,
702,1035,0,1,5218,2,2,195907,,13.093034,,Jakkur,77.618901,Meenakshi Estates,20-Aug-20,5400000,Adis North Lake,Yelahanka,1.5,1,3.2
703,900,0,1,4222,2,2,0,,13.081152,,Chikkabanavar ,77.51043,,17-Nov-20,3800000,lake View apartment,,,,
704,1829,1-Jul-21,,5607,3,3,752994,0,13.1207272,,Yelahanka,77.6058185,Adithya Developers,24-Oct-20,10251545,Adithya Tranquil,,,,
705,1176,0,1,4251,2,2,74496,,12.947023,,Munnekollal,77.71476,,17-Nov-20,5000000,Ravoos Nino,,,,
